{
"type": "FeatureCollection",
"TIPO_OBRA": "micro_obra",
"crs": { "type": "TIPO_OBRA", "properties": { "TIPO_OBRA": "urn:ogc:def:crs:OGC:1.3:CRS84" } },
"features": [
{ "type": "Feature", "properties": { "expediente": "30122573\/17", "NOMENC.PAR": null, "TEL": "8\/5\/2018", "address": "AVENIDA PEDRO GOYENA 1623", "TIPO_OBRA": "Micro Obra", "m2": "26", "NAME": "Obra Iniciada", "Trata": "MDUG0122A", "CIUDAD": "Ciudad Autonoma de Buenos Aires", "PAIS": "Argentina" }, "geometry": { "type": "Point", "coordinates": [ -58.450916125, -34.628156166666699 ] } },
{ "type": "Feature", "properties": { "expediente": "16282538\/18", "NOMENC.PAR": "15-71-95A-C", "TEL": "3\/10\/2018", "address": "BOLIVIA 3959", "TIPO_OBRA": "Micro Obra", "m2": "8", "NAME": "Obra NO Iniciada", "Trata": "MDUG0139A", "CIUDAD": "Ciudad Autonoma de Buenos Aires", "PAIS": "Argentina" }, "geometry": { "type": "Point", "coordinates": [ -58.493810026530603, -34.589557628571399 ] } },
{ "type": "Feature", "properties": { "expediente": "35246576\/18", "NOMENC.PAR": "21-98-63H-1", "TEL": "22\/5\/2019", "address": "SIN NOMBRE", "TIPO_OBRA": "Micro Obra", "m2": null, "NAME": "Obra NO Iniciada", "Trata": "MDUG0122A", "CIUDAD": "Ciudad Autonoma de Buenos Aires", "PAIS": "Argentina" }, "geometry": { "type": "Point", "coordinates": [ -58.381762, -34.572974 ] } },
{ "type": "Feature", "properties": { "expediente": "23686275\/17", "NOMENC.PAR": "1-66-126", "TEL": "8\/5\/2019", "address": "SIN NOMBRE", "TIPO_OBRA": "Micro Obra", "m2": null, "NAME": "Obra NO Iniciada", "Trata": "MDUG0110B", "CIUDAD": "Ciudad Autonoma de Buenos Aires", "PAIS": "Argentina" }, "geometry": { "type": "Point", "coordinates": [ -58.381762, -34.572974 ] } },
{ "type": "Feature", "properties": { "expediente": "23675089\/17", "NOMENC.PAR": "1-66-115", "TEL": "8\/5\/2019", "address": "SIN NOMBRE", "TIPO_OBRA": "Micro Obra", "m2": null, "NAME": "Obra NO Iniciada", "Trata": "MDUG0110B", "CIUDAD": "Ciudad Autonoma de Buenos Aires", "PAIS": "Argentina" }, "geometry": { "type": "Point", "coordinates": [ -58.381762, -34.572974 ] } },
{ "type": "Feature", "properties": { "expediente": "19346833\/18", "NOMENC.PAR": "16-27-75-009A", "TEL": "11\/3\/2019", "address": "11 DE SEPTIEMBRE 3201", "TIPO_OBRA": "Micro Obra", "m2": "22,05", "NAME": "Obra NO Iniciada", "Trata": "MDUG0105A", "CIUDAD": "Ciudad Autonoma de Buenos Aires", "PAIS": "Argentina" }, "geometry": { "type": "Point", "coordinates": [ -58.4680398, -34.5361362 ] } },
{ "type": "Feature", "properties": { "expediente": "12220553\/18", "NOMENC.PAR": "15-81-1-28", "TEL": "22\/11\/2018", "address": "AVENIDA SEGUROLA 2057", "TIPO_OBRA": "Micro Obra", "m2": null, "NAME": "Obra Iniciada", "Trata": "MDUG0105A", "CIUDAD": "Ciudad Autonoma de Buenos Aires", "PAIS": "Argentina" }, "geometry": { "type": "Point", "coordinates": [ -58.502823628571399, -34.617477657142899 ] } },
{ "type": "Feature", "properties": { "expediente": "27927423\/16", "NOMENC.PAR": "15-81-112-16", "TEL": "13\/5\/2019", "address": "E.LAMARCA 2621", "TIPO_OBRA": "Micro Obra", "m2": null, "NAME": "Obra NO Iniciada", "Trata": "MDUG0105A", "CIUDAD": "Ciudad Autonoma de Buenos Aires", "PAIS": "Argentina" }, "geometry": { "type": "Point", "coordinates": [ -58.476699386102901, -34.6323237 ] } },
{ "type": "Feature", "properties": { "expediente": "6719574\/16", "NOMENC.PAR": "07-45-149-3b", "TEL": "3\/5\/2019", "address": "DIAZ VELEZ 4651", "TIPO_OBRA": "Micro Obra", "m2": null, "NAME": "Obra NO Iniciada", "Trata": "MDUG0110A", "CIUDAD": "Ciudad Autonoma de Buenos Aires", "PAIS": "Argentina" }, "geometry": { "type": "Point", "coordinates": [ -58.432427105483363, -34.608369573613722 ] } },
{ "type": "Feature", "properties": { "expediente": "18113823\/16", "NOMENC.PAR": "16-55-140", "TEL": "9\/5\/2019", "address": "RUIZ HUIDOBRO 4644", "TIPO_OBRA": "Micro Obra", "m2": null, "NAME": "Obra NO Iniciada", "Trata": "MDUG0110A", "CIUDAD": "Ciudad Autonoma de Buenos Aires", "PAIS": "Argentina" }, "geometry": { "type": "Point", "coordinates": [ -58.4726899, -34.5450099 ] } },
{ "type": "Feature", "properties": { "expediente": "23014247\/18", "NOMENC.PAR": "16-41-28-28A", "TEL": "28\/9\/2018", "address": "ROQUE PEREZ 3160", "TIPO_OBRA": "Micro Obra", "m2": null, "NAME": "Obra NO Iniciada", "Trata": "MDUG0139A", "CIUDAD": "Ciudad Autonoma de Buenos Aires", "PAIS": "Argentina" }, "geometry": { "type": "Point", "coordinates": [ -58.475770285714297, -34.558948830612202 ] } },
{ "type": "Feature", "properties": { "expediente": "6752617\/19", "NOMENC.PAR": "18-31-32-7A", "TEL": "28\/5\/2019", "address": "THAMES 741\/47", "TIPO_OBRA": "Micro Obra", "m2": "13,75", "NAME": "Obra NO Iniciada", "Trata": "#N\/A", "CIUDAD": "Ciudad Autonoma de Buenos Aires", "PAIS": "Argentina" }, "geometry": { "type": "Point", "coordinates": [ -58.440263612244898, -34.593786591836697 ] } },
{ "type": "Feature", "properties": { "expediente": "22522980\/18", "NOMENC.PAR": "18-21-32-18", "TEL": "27\/9\/2018", "address": "JUNCAL 3447\/53", "TIPO_OBRA": "Micro Obra", "m2": null, "NAME": "Obra NO Iniciada", "Trata": "MDUG0139A", "CIUDAD": "Ciudad Autonoma de Buenos Aires", "PAIS": "Argentina" }, "geometry": { "type": "Point", "coordinates": [ -58.412048102040799, -34.584358251020397 ] } },
{ "type": "Feature", "properties": { "expediente": "37269103\/15", "NOMENC.PAR": "6-401-37C-16B", "TEL": "30\/5\/2019", "address": "CALASANZ 471", "TIPO_OBRA": "Micro Obra", "m2": null, "NAME": "Obra NO Iniciada", "Trata": "MDUG0105A", "CIUDAD": "Ciudad Autonoma de Buenos Aires", "PAIS": "Argentina" }, "geometry": { "type": "Point", "coordinates": [ -58.437820928571398, -34.624252428571403 ] } },
{ "type": "Feature", "properties": { "expediente": "30281368\/17", "NOMENC.PAR": "3-16-15-023", "TEL": "30\/5\/2019", "address": "ENTRE RIOS 2162\/66", "TIPO_OBRA": "Micro Obra", "m2": null, "NAME": "Obra NO Iniciada", "Trata": "MDUG0105A", "CIUDAD": "Ciudad Autonoma de Buenos Aires", "PAIS": "Argentina" }, "geometry": { "type": "Point", "coordinates": [ -58.3919752, -34.6295636 ] } },
{ "type": "Feature", "properties": { "expediente": "22653796\/18", "NOMENC.PAR": "15,67-57-12", "TEL": "13\/9\/2018", "address": "TERRADA 1887\/91", "TIPO_OBRA": "Micro Obra", "m2": null, "NAME": "Obra NO Iniciada", "Trata": "MDUG0139A", "CIUDAD": "Ciudad Autonoma de Buenos Aires", "PAIS": "Argentina" }, "geometry": { "type": "Point", "coordinates": [ -58.479089285714302, -34.611925 ] } },
{ "type": "Feature", "properties": { "expediente": "33906393\/18", "NOMENC.PAR": "6-59-170-30", "TEL": "30\/5\/2019", "address": "CUCHA CUCHA 1214", "TIPO_OBRA": "Micro Obra", "m2": null, "NAME": "Obra NO Iniciada", "Trata": "MDUG0122A", "CIUDAD": "Ciudad Autonoma de Buenos Aires", "PAIS": "Argentina" }, "geometry": { "type": "Point", "coordinates": [ -58.451236, -34.607878489795901 ] } },
{ "type": "Feature", "properties": { "expediente": "17610839\/14", "NOMENC.PAR": "1-74-12A-9", "TEL": "18\/12\/2018", "address": "INDEPENDENCIA 1302", "TIPO_OBRA": "Micro Obra", "m2": "22", "NAME": "Obra NO Iniciada", "Trata": "MDUG0105A", "CIUDAD": "Ciudad Autonoma de Buenos Aires", "PAIS": "Argentina" }, "geometry": { "type": "Point", "coordinates": [ -58.380865910550199, -34.61814285 ] } },
{ "type": "Feature", "properties": { "expediente": "6177146\/18", "NOMENC.PAR": "15-69-009-043", "TEL": "30\/5\/2019", "address": "CARRANZA 3025", "TIPO_OBRA": "Micro Obra", "m2": null, "NAME": "Obra NO Iniciada", "Trata": "MDUG0139A", "CIUDAD": "Ciudad Autonoma de Buenos Aires", "PAIS": "Argentina" }, "geometry": { "type": "Point", "coordinates": [ -58.4346784, -34.575536 ] } },
{ "type": "Feature", "properties": { "expediente": "21941152\/18", "NOMENC.PAR": "15-83-098-002E", "TEL": "18\/12\/2018", "address": "PEDRO MORAN 3869", "TIPO_OBRA": "Micro Obra", "m2": null, "NAME": "Obra NO Iniciada", "Trata": "MDUG0105B", "CIUDAD": "Ciudad Autonoma de Buenos Aires", "PAIS": "Argentina" }, "geometry": { "type": "Point", "coordinates": [ -58.5090973265306, -34.600579734693902 ] } },
{ "type": "Feature", "properties": { "expediente": "24530037\/18", "NOMENC.PAR": "6-36-133-9", "TEL": "12\/9\/2018", "address": "QUITO 3666", "TIPO_OBRA": "Micro Obra", "m2": null, "NAME": "Obra NO Iniciada", "Trata": "MDUG0139A", "CIUDAD": "Ciudad Autonoma de Buenos Aires", "PAIS": "Argentina" }, "geometry": { "type": "Point", "coordinates": [ -58.417785883673503, -34.616725746938798 ] } },
{ "type": "Feature", "properties": { "expediente": "23074428\/18", "NOMENC.PAR": "12-04-47-10", "TEL": "31\/5\/2019", "address": "AZOPARDO 1337\/55", "TIPO_OBRA": "Micro Obra", "m2": null, "NAME": "Obra NO Iniciada", "Trata": "#N\/A", "CIUDAD": "Ciudad Autonoma de Buenos Aires", "PAIS": "Argentina" }, "geometry": { "type": "Point", "coordinates": [ -58.36683, -34.623222757142898 ] } },
{ "type": "Feature", "properties": { "expediente": "29806350\/18", "NOMENC.PAR": "5-48-34-001B", "TEL": "7\/12\/2018", "address": "JOSE BONIFACIO 2906", "TIPO_OBRA": "Micro Obra", "m2": null, "NAME": "Obra NO Iniciada", "Trata": "MDUG0105A", "CIUDAD": "Ciudad Autonoma de Buenos Aires", "PAIS": "Argentina" }, "geometry": { "type": "Point", "coordinates": [ -58.4681069591837, -34.634635510204099 ] } },
{ "type": "Feature", "properties": { "expediente": "15475091\/18", "NOMENC.PAR": "01-72-039-03", "TEL": "10\/9\/2018", "address": "TONELERO 6149", "TIPO_OBRA": "Micro Obra", "m2": "4", "NAME": "Obra NO Iniciada", "Trata": "MDUG0122A", "CIUDAD": "Ciudad Autonoma de Buenos Aires", "PAIS": "Argentina" }, "geometry": { "type": "Point", "coordinates": [ -58.516177122839451, -34.642710270541464 ] } },
{ "type": "Feature", "properties": { "expediente": "19993935\/18", "NOMENC.PAR": "14-01-08-19", "TEL": "31\/5\/2019", "address": "SUIPACHA 765\/69", "TIPO_OBRA": "Micro Obra", "m2": "21,06", "NAME": "Obra NO Iniciada", "Trata": "MDUG0122A", "CIUDAD": "Ciudad Autonoma de Buenos Aires", "PAIS": "Argentina" }, "geometry": { "type": "Point", "coordinates": [ -58.379059880989082, -34.599820026990031 ] } },
{ "type": "Feature", "properties": { "expediente": "10121213\/18", "NOMENC.PAR": "08-30-42-6B", "TEL": "7\/12\/2018", "address": "AVENIDA PAVON 3156", "TIPO_OBRA": "Micro Obra", "m2": null, "NAME": "Obra NO Iniciada", "Trata": "MDUG0105A", "CIUDAD": "Ciudad Autonoma de Buenos Aires", "PAIS": "Argentina" }, "geometry": { "type": "Point", "coordinates": [ -58.409224612244898, -34.628682755101998 ] } },
{ "type": "Feature", "properties": { "expediente": "13653650\/19", "NOMENC.PAR": "07-017-006-002", "TEL": "31\/5\/2019", "address": "POTOSI 4428", "TIPO_OBRA": "Micro Obra", "m2": "12,1", "NAME": "Obra NO Iniciada", "Trata": "#N\/A", "CIUDAD": "Ciudad Autonoma de Buenos Aires", "PAIS": "Argentina" }, "geometry": { "type": "Point", "coordinates": [ -58.429645428571398, -34.6072681 ] } },
{ "type": "Feature", "properties": { "expediente": "9423038\/18", "NOMENC.PAR": "1-72-115-22", "TEL": "5\/12\/2018", "address": "CORONEL RAMON LORENZO FALCON 6619", "TIPO_OBRA": "Micro Obra", "m2": null, "NAME": "Obra NO Iniciada", "Trata": "MDUG0105A", "CIUDAD": "Ciudad Autonoma de Buenos Aires", "PAIS": "Argentina" }, "geometry": { "type": "Point", "coordinates": [ -58.519938885714303, -34.640256116326498 ] } },
{ "type": "Feature", "properties": { "expediente": "18746451\/18", "NOMENC.PAR": "01-60-01-23", "TEL": "5\/9\/2018", "address": "LARRAZABAL 1240", "TIPO_OBRA": "Micro Obra", "m2": null, "NAME": "Obra NO Iniciada", "Trata": "MDUG0139A", "CIUDAD": "Ciudad Autonoma de Buenos Aires", "PAIS": "Argentina" }, "geometry": { "type": "Point", "coordinates": [ -58.5000878, -34.6532595 ] } },
{ "type": "Feature", "properties": { "expediente": "17423797\/18", "NOMENC.PAR": "16-41-14-20", "TEL": "31\/8\/2018", "address": "M.UGARTE 2531", "TIPO_OBRA": "Micro Obra", "m2": "7", "NAME": "Obra NO Iniciada", "Trata": "MDUG0139A", "CIUDAD": "Ciudad Autonoma de Buenos Aires", "PAIS": "Argentina" }, "geometry": { "type": "Point", "coordinates": [ -58.4621533, -34.5558304 ] } },
{ "type": "Feature", "properties": { "expediente": "27523610\/18", "NOMENC.PAR": "15-81-065-024", "TEL": "28\/11\/2018", "address": "BAHIA BLANCA 3366", "TIPO_OBRA": "Micro Obra", "m2": "23", "NAME": "Obra NO Iniciada", "Trata": "MDUG0105A", "CIUDAD": "Ciudad Autonoma de Buenos Aires", "PAIS": "Argentina" }, "geometry": { "type": "Point", "coordinates": [ -58.5072797959184, -34.603563142857098 ] } },
{ "type": "Feature", "properties": { "expediente": "22203413\/18", "NOMENC.PAR": "15-93-04-17", "TEL": "16\/11\/2018", "address": "AVENIDA GENERAL PAZ 9678", "TIPO_OBRA": "Micro Obra", "m2": null, "NAME": "Obra NO Iniciada", "Trata": "MDUG0122A", "CIUDAD": "Ciudad Autonoma de Buenos Aires", "PAIS": "Argentina" }, "geometry": { "type": "Point", "coordinates": [ -58.5295709, -34.629943 ] } },
{ "type": "Feature", "properties": { "expediente": "31771925\/18", "NOMENC.PAR": "16-53-64-023", "TEL": "26\/2\/2019", "address": "MARIANO ACHA 2820", "TIPO_OBRA": "Micro Obra", "m2": null, "NAME": "Obra NO Iniciada", "Trata": "MDUG0139A", "CIUDAD": "Ciudad Autonoma de Buenos Aires", "PAIS": "Argentina" }, "geometry": { "type": "Point", "coordinates": [ -58.481877877551, -34.567044673469397 ] } },
{ "type": "Feature", "properties": { "expediente": "29260673\/18", "NOMENC.PAR": "18-19-08-23d", "TEL": "25\/2\/2019", "address": "JOSE ANTONIO CABRERA 3931", "TIPO_OBRA": "Micro Obra", "m2": null, "NAME": "Obra NO Iniciada", "Trata": "MDUG0139A", "CIUDAD": "Ciudad Autonoma de Buenos Aires", "PAIS": "Argentina" }, "geometry": { "type": "Point", "coordinates": [ -58.4220969891892, -34.596332240540498 ] } },
{ "type": "Feature", "properties": { "expediente": "34817485\/18", "NOMENC.PAR": "17-33-73-22a", "TEL": "22\/2\/2019", "address": "CONCEPCION ARENAL 3470", "TIPO_OBRA": "Micro Obra", "m2": null, "NAME": "Obra NO Iniciada", "Trata": "MDUG0139A", "CIUDAD": "Ciudad Autonoma de Buenos Aires", "PAIS": "Argentina" }, "geometry": { "type": "Point", "coordinates": [ -58.446099144898, -34.583426693877598 ] } },
{ "type": "Feature", "properties": { "expediente": "6373450\/17", "NOMENC.PAR": "55-177A-016", "TEL": "8\/11\/2018", "address": "CRISOLOGO LARRALDE 4469", "TIPO_OBRA": "Micro Obra", "m2": null, "NAME": "Obra NO Iniciada", "Trata": "MDUG0105A", "CIUDAD": "Ciudad Autonoma de Buenos Aires", "PAIS": "Argentina" }, "geometry": { "type": "Point", "coordinates": [ -58.4683614, -34.548662 ] } },
{ "type": "Feature", "properties": { "expediente": "9430251\/18", "NOMENC.PAR": "5-42-40-23a", "TEL": "6\/11\/2018", "address": "AVENIDA PEDRO GOYENA 1631", "TIPO_OBRA": "Micro Obra", "m2": null, "NAME": "Obra NO Iniciada", "Trata": "MDUG0105A", "CIUDAD": "Ciudad Autonoma de Buenos Aires", "PAIS": "Argentina" }, "geometry": { "type": "Point", "coordinates": [ -58.451053625, -34.6281795 ] } },
{ "type": "Feature", "properties": { "expediente": "28151817\/18", "NOMENC.PAR": "ESTRUCTURAS", "TEL": "19\/10\/2018", "address": "FORMOSA 149\/55", "TIPO_OBRA": "Micro Obra", "m2": null, "NAME": "Obra NO Iniciada", "Trata": "MDUG0139A", "CIUDAD": "Ciudad Autonoma de Buenos Aires", "PAIS": "Argentina" }, "geometry": { "type": "Point", "coordinates": [ -58.430259918367298, -34.620834148979597 ] } },
{ "type": "Feature", "properties": { "expediente": "22936169\/17", "NOMENC.PAR": "1-82-63-22", "TEL": "6\/11\/2018", "address": "CAÑADA DE GOMEZ 4890", "TIPO_OBRA": "Micro Obra", "m2": null, "NAME": "Obra NO Iniciada", "Trata": "MDUG0105B", "CIUDAD": "Ciudad Autonoma de Buenos Aires", "PAIS": "Argentina" }, "geometry": { "type": "Point", "coordinates": [ -58.473917657142898, -34.685961493877599 ] } },
{ "type": "Feature", "properties": { "expediente": "23772558\/18", "NOMENC.PAR": "17-37-19-1", "TEL": "16\/1\/2019", "address": "ALVAREZ THOMAS 1002", "TIPO_OBRA": "Micro Obra", "m2": null, "NAME": "Obra NO Iniciada", "Trata": "MDUG0139A", "CIUDAD": "Ciudad Autonoma de Buenos Aires", "PAIS": "Argentina" }, "geometry": { "type": "Point", "coordinates": [ -58.4509188, -34.5803029 ] } },
{ "type": "Feature", "properties": { "expediente": "30209874\/18", "NOMENC.PAR": "19-15-74-13", "TEL": "22\/5\/2019", "address": "AVENIDA LAS HERAS 2837", "TIPO_OBRA": "Micro Obra", "m2": null, "NAME": "Obra Iniciada", "Trata": "MDUG0110B", "CIUDAD": "Ciudad Autonoma de Buenos Aires", "PAIS": "Argentina" }, "geometry": { "type": "Point", "coordinates": [ -58.3966939, -34.5870684 ] } },
{ "type": "Feature", "properties": { "expediente": "2079502\/16", "NOMENC.PAR": "5-65-114-19", "TEL": "15\/2\/2019", "address": "ARANGUREN 2123", "TIPO_OBRA": "Micro Obra", "m2": null, "NAME": "Obra NO Iniciada", "Trata": "MDUG1001D", "CIUDAD": "Ciudad Autonoma de Buenos Aires", "PAIS": "Argentina" }, "geometry": { "type": "Point", "coordinates": [ -58.4880508, -34.6295609 ] } },
{ "type": "Feature", "properties": { "expediente": "16798721\/18", "NOMENC.PAR": "2-32-85-6H", "TEL": "15\/8\/2018", "address": "RONDEAU 3165", "TIPO_OBRA": "Micro Obra", "m2": null, "NAME": "Obra NO Iniciada", "Trata": "#N\/A", "CIUDAD": "Ciudad Autonoma de Buenos Aires", "PAIS": "Argentina" }, "geometry": { "type": "Point", "coordinates": [ -58.4086136326531, -34.636490693877597 ] } },
{ "type": "Feature", "properties": { "expediente": "30140564\/18", "NOMENC.PAR": "1-72-16-9", "TEL": "5\/12\/2018", "address": "AVENIDA RIVADAVIA 11674", "TIPO_OBRA": "Micro Obra", "m2": null, "NAME": "Obra Iniciada", "Trata": "MDUG0105B", "CIUDAD": "Ciudad Autonoma de Buenos Aires", "PAIS": "Argentina" }, "geometry": { "type": "Point", "coordinates": [ -58.528614882626798, -34.639439560824997 ] } },
{ "type": "Feature", "properties": { "expediente": "31382873\/18", "NOMENC.PAR": "16-027-031-018", "TEL": "2\/1\/2019", "address": "MANUELA PEDRAZA 2151", "TIPO_OBRA": "Micro Obra", "m2": null, "NAME": "Obra NO Iniciada", "Trata": "MDUG0139A", "CIUDAD": "Ciudad Autonoma de Buenos Aires", "PAIS": "Argentina" }, "geometry": { "type": "Point", "coordinates": [ -58.463977744898003, -34.549982967346899 ] } },
{ "type": "Feature", "properties": { "expediente": "4111142\/18", "NOMENC.PAR": "27-054-19", "TEL": "21\/12\/2018", "address": "MANUELA PEDRAZA 1885", "TIPO_OBRA": "Micro Obra", "m2": null, "NAME": "Obra NO Iniciada", "Trata": "MDUG1001D", "CIUDAD": "Ciudad Autonoma de Buenos Aires", "PAIS": "Argentina" }, "geometry": { "type": "Point", "coordinates": [ -58.461441014285697, -34.548711757142897 ] } },
{ "type": "Feature", "properties": { "expediente": "29720097\/17", "NOMENC.PAR": "1-44-131-38", "TEL": "20\/12\/2018", "address": "VICTOR MARTINEZ 1919", "TIPO_OBRA": "Micro Obra", "m2": "29", "NAME": "Obra NO Iniciada", "Trata": "MDUG0122A", "CIUDAD": "Ciudad Autonoma de Buenos Aires", "PAIS": "Argentina" }, "geometry": { "type": "Point", "coordinates": [ -58.438182, -34.642060625 ] } },
{ "type": "Feature", "properties": { "expediente": "14065170\/18", "NOMENC.PAR": "6-36-95-3", "TEL": "30\/7\/2018", "address": "MEXICO 3840\/46", "TIPO_OBRA": "Micro Obra", "m2": "6", "NAME": "Obra NO Iniciada", "Trata": "MDUG0122A", "CIUDAD": "Ciudad Autonoma de Buenos Aires", "PAIS": "Argentina" }, "geometry": { "type": "Point", "coordinates": [ -58.419965551020397, -34.620158836734703 ] } },
{ "type": "Feature", "properties": { "expediente": "20962372\/18", "NOMENC.PAR": "14-01-01-6", "TEL": "7\/3\/2019", "address": "BARTOLOME MITRE 844", "TIPO_OBRA": "Micro Obra", "m2": "10,36", "NAME": "Obra Iniciada", "Trata": "MDUG0122A", "CIUDAD": "Ciudad Autonoma de Buenos Aires", "PAIS": "Argentina" }, "geometry": { "type": "Point", "coordinates": [ -58.378499242857103, -34.6071519 ] } },
{ "type": "Feature", "properties": { "expediente": "35342113\/18", "NOMENC.PAR": "16-73-37-009", "TEL": "19\/2\/2019", "address": "GABRIELA MISTRAL 2776", "TIPO_OBRA": "Micro Obra", "m2": null, "NAME": "Obra NO Iniciada", "Trata": "MDUG0139A", "CIUDAD": "Ciudad Autonoma de Buenos Aires", "PAIS": "Argentina" }, "geometry": { "type": "Point", "coordinates": [ -58.499922628571397, -34.586276965306098 ] } },
{ "type": "Feature", "properties": { "expediente": "8077225\/17", "NOMENC.PAR": "15-71-17-19", "TEL": "20\/12\/2018", "address": "NUEVA YORK 3191", "TIPO_OBRA": "Micro Obra", "m2": null, "NAME": "Obra NO Iniciada", "Trata": "MDUG1001D", "CIUDAD": "Ciudad Autonoma de Buenos Aires", "PAIS": "Argentina" }, "geometry": { "type": "Point", "coordinates": [ -58.501322808163302, -34.593670085714301 ] } },
{ "type": "Feature", "properties": { "expediente": "12502882\/17", "NOMENC.PAR": "5-65-128a-11", "TEL": "20\/12\/2018", "address": "FRAY LUIS BELTRAN 41", "TIPO_OBRA": "Micro Obra", "m2": null, "NAME": "Obra NO Iniciada", "Trata": "MDUG0139A", "CIUDAD": "Ciudad Autonoma de Buenos Aires", "PAIS": "Argentina" }, "geometry": { "type": "Point", "coordinates": [ -58.458296521589993, -34.626522065932228 ] } },
{ "type": "Feature", "properties": { "expediente": "29331964\/18", "NOMENC.PAR": "8-30-63-27", "TEL": "20\/12\/2018", "address": "BARCELONA 3041", "TIPO_OBRA": "Micro Obra", "m2": null, "NAME": "Obra NO Iniciada", "Trata": "#N\/A", "CIUDAD": "Ciudad Autonoma de Buenos Aires", "PAIS": "Argentina" }, "geometry": { "type": "Point", "coordinates": [ -58.4389189, -34.6606878 ] } },
{ "type": "Feature", "properties": { "expediente": "21543860\/17", "NOMENC.PAR": "19-15-3-41a", "TEL": "10\/12\/2018", "address": "MARIO BRAVO 1234", "TIPO_OBRA": "Micro Obra", "m2": null, "NAME": "Obra NO Iniciada", "Trata": "MDUG0139A", "CIUDAD": "Ciudad Autonoma de Buenos Aires", "PAIS": "Argentina" }, "geometry": { "type": "Point", "coordinates": [ -58.414981424686502, -34.595061390294902 ] } },
{ "type": "Feature", "properties": { "expediente": "9412296\/18", "NOMENC.PAR": "21-97-1c-000", "TEL": "9\/11\/2018", "address": "CECILIA GRIERSON 42", "TIPO_OBRA": "Micro Obra", "m2": null, "NAME": "Obra NO Iniciada", "Trata": "MDUG0122A", "CIUDAD": "Ciudad Autonoma de Buenos Aires", "PAIS": "Argentina" }, "geometry": { "type": "Point", "coordinates": [ -58.368692866666699, -34.598216716666698 ] } },
{ "type": "Feature", "properties": { "expediente": "29603040\/17", "NOMENC.PAR": "16-53-90-01a", "TEL": "2\/1\/2019", "address": "DONADO 2663", "TIPO_OBRA": "Micro Obra", "m2": null, "NAME": "Obra NO Iniciada", "Trata": "MDUG0122A", "CIUDAD": "Ciudad Autonoma de Buenos Aires", "PAIS": "Argentina" }, "geometry": { "type": "Point", "coordinates": [ -58.479445414285699, -34.5678579530612 ] } },
{ "type": "Feature", "properties": { "expediente": "18876275\/18", "NOMENC.PAR": "15-89-76-27", "TEL": "10\/12\/2018", "address": "AVENIDA FRANCISCO BEIRO 4817", "TIPO_OBRA": "Micro Obra", "m2": null, "NAME": "Obra NO Iniciada", "Trata": "MDUG0139A", "CIUDAD": "Ciudad Autonoma de Buenos Aires", "PAIS": "Argentina" }, "geometry": { "type": "Point", "coordinates": [ -58.518591673469402, -34.6099347142857 ] } },
{ "type": "Feature", "properties": { "expediente": "124971248\/18", "NOMENC.PAR": "05-57-123-15", "TEL": "7\/12\/2018", "address": "AVENIDA GAONA 1360", "TIPO_OBRA": "Micro Obra", "m2": null, "NAME": "Obra NO Iniciada", "Trata": "#N\/A", "CIUDAD": "Ciudad Autonoma de Buenos Aires", "PAIS": "Argentina" }, "geometry": { "type": "Point", "coordinates": [ -58.448357658585898, -34.608657577777798 ] } },
{ "type": "Feature", "properties": { "expediente": "30020022\/18", "NOMENC.PAR": "2-32-107-3", "TEL": "7\/12\/2018", "address": "AVENIDA CHICLANA 3020", "TIPO_OBRA": "Micro Obra", "m2": null, "NAME": "Obra NO Iniciada", "Trata": "#N\/A", "CIUDAD": "Ciudad Autonoma de Buenos Aires", "PAIS": "Argentina" }, "geometry": { "type": "Point", "coordinates": [ -58.4052528, -34.6285401 ] } },
{ "type": "Feature", "properties": { "expediente": "9680292\/17", "NOMENC.PAR": "19-11-51-28", "TEL": "9\/11\/2018", "address": "PRESIDENTE JOSE EVARISTO URIBURU 1789", "TIPO_OBRA": "Micro Obra", "m2": null, "NAME": "Obra NO Iniciada", "Trata": "MDUG1001D", "CIUDAD": "Ciudad Autonoma de Buenos Aires", "PAIS": "Argentina" }, "geometry": { "type": "Point", "coordinates": [ -58.394247289795899, -34.5887733530612 ] } },
{ "type": "Feature", "properties": { "expediente": "23501984\/18", "NOMENC.PAR": "21-97-37b-1", "TEL": "8\/2\/2019", "address": "CECILIA GRIERSON 322", "TIPO_OBRA": "Micro Obra", "m2": null, "NAME": "Obra NO Iniciada", "Trata": "MDUG0139A", "CIUDAD": "Ciudad Autonoma de Buenos Aires", "PAIS": "Argentina" }, "geometry": { "type": "Point", "coordinates": [ -58.364947981632703, -34.5981062122449 ] } },
{ "type": "Feature", "properties": { "expediente": "23499290\/18", "NOMENC.PAR": "21-97-37b-2", "TEL": "8\/2\/2019", "address": "CECILIA GRIERSON 222", "TIPO_OBRA": "Micro Obra", "m2": null, "NAME": "Obra NO Iniciada", "Trata": "MDUG0139A", "CIUDAD": "Ciudad Autonoma de Buenos Aires", "PAIS": "Argentina" }, "geometry": { "type": "Point", "coordinates": [ -58.365810365306103, -34.598166712244897 ] } },
{ "type": "Feature", "properties": { "expediente": "24490387\/18", "NOMENC.PAR": "17-37-126-11", "TEL": "14\/11\/2018", "address": "JOSE HERNANDEZ 2773", "TIPO_OBRA": "Micro Obra", "m2": null, "NAME": "Obra NO Iniciada", "Trata": "MDUG0105B", "CIUDAD": "Ciudad Autonoma de Buenos Aires", "PAIS": "Argentina" }, "geometry": { "type": "Point", "coordinates": [ -58.456956223572085, -34.567584508333546 ] } },
{ "type": "Feature", "properties": { "expediente": "21086129\/18", "NOMENC.PAR": "16-41-149-4", "TEL": "28\/11\/2018", "address": "JUANA AZURDUY 2570", "TIPO_OBRA": "Micro Obra", "m2": "2", "NAME": "Obra NO Iniciada", "Trata": "MDUG0139A", "CIUDAD": "Ciudad Autonoma de Buenos Aires", "PAIS": "Argentina" }, "geometry": { "type": "Point", "coordinates": [ -58.468330377550998, -34.5518961795918 ] } },
{ "type": "Feature", "properties": { "expediente": "8070350\/18", "NOMENC.PAR": "5-65-40-21", "TEL": "12\/7\/2018", "address": "NEUQUEN 2847", "TIPO_OBRA": "Micro Obra", "m2": null, "NAME": "Obra NO Iniciada", "Trata": "MDUG0139A", "CIUDAD": "Ciudad Autonoma de Buenos Aires", "PAIS": "Argentina" }, "geometry": { "type": "Point", "coordinates": [ -58.473219444898, -34.620877683673498 ] } },
{ "type": "Feature", "properties": { "expediente": "21167993\/15", "NOMENC.PAR": null, "TEL": "21\/2\/2018", "address": "DOCTOR PEDRO IGNACIO RIVERA 3629", "TIPO_OBRA": "Micro Obra", "m2": "8", "NAME": "Obra NO Iniciada", "Trata": "MDUG1001I", "CIUDAD": "Ciudad Autonoma de Buenos Aires", "PAIS": "Argentina" }, "geometry": { "type": "Point", "coordinates": [ -58.4735158571429, -34.563663428571402 ] } },
{ "type": "Feature", "properties": { "expediente": "5953898\/18", "NOMENC.PAR": "16-39-55-10", "TEL": "26\/11\/2018", "address": "ZAPIOLA 2065", "TIPO_OBRA": "Micro Obra", "m2": null, "NAME": "Obra NO Iniciada", "Trata": "MDUG0105A", "CIUDAD": "Ciudad Autonoma de Buenos Aires", "PAIS": "Argentina" }, "geometry": { "type": "Point", "coordinates": [ -58.462854148106231, -34.566306559989357 ] } },
{ "type": "Feature", "properties": { "expediente": "25212293\/18", "NOMENC.PAR": "6-40-109-6a", "TEL": "20\/12\/2018", "address": "DIRECTORIO 248", "TIPO_OBRA": "Micro Obra", "m2": null, "NAME": "Obra NO Iniciada", "Trata": "MDUG0105A", "CIUDAD": "Ciudad Autonoma de Buenos Aires", "PAIS": "Argentina" }, "geometry": { "type": "Point", "coordinates": [ -58.430218916326503, -34.6275582346939 ] } },
{ "type": "Feature", "properties": { "expediente": "15140586\/18", "NOMENC.PAR": "3-18-60-6", "TEL": "13\/11\/2018", "address": "SANTO DOMINGO 2486", "TIPO_OBRA": "Micro Obra", "m2": null, "NAME": "Obra NO Iniciada", "Trata": "MDUG0105A", "CIUDAD": "Ciudad Autonoma de Buenos Aires", "PAIS": "Argentina" }, "geometry": { "type": "Point", "coordinates": [ -58.380491620909922, -34.652263401954464 ] } },
{ "type": "Feature", "properties": { "expediente": "29050620\/18", "NOMENC.PAR": "15-49-69-19", "TEL": "19\/12\/2018", "address": "TRIUNVIRATO 3212", "TIPO_OBRA": "Micro Obra", "m2": null, "NAME": "Obra NO Iniciada", "Trata": "MDUG0105A", "CIUDAD": "Ciudad Autonoma de Buenos Aires", "PAIS": "Argentina" }, "geometry": { "type": "Point", "coordinates": [ -58.467615457142898, -34.583823567346897 ] } },
{ "type": "Feature", "properties": { "expediente": "32769529\/18", "NOMENC.PAR": "16-53-63-5", "TEL": "19\/12\/2018", "address": "MARIANO ACHA 2764", "TIPO_OBRA": "Micro Obra", "m2": null, "NAME": "Obra NO Iniciada", "Trata": "MDUG0105A", "CIUDAD": "Ciudad Autonoma de Buenos Aires", "PAIS": "Argentina" }, "geometry": { "type": "Point", "coordinates": [ -58.481362367346897, -34.5676411632653 ] } },
{ "type": "Feature", "properties": { "expediente": "14767328\/18", "NOMENC.PAR": "15-59-108-18a", "TEL": "15\/11\/2018", "address": "ADOLFO DICKMAN 981", "TIPO_OBRA": "Micro Obra", "m2": null, "NAME": "Obra NO Iniciada", "Trata": "MDUG0139A", "CIUDAD": "Ciudad Autonoma de Buenos Aires", "PAIS": "Argentina" }, "geometry": { "type": "Point", "coordinates": [ -58.462634122449003, -34.597143204081597 ] } },
{ "type": "Feature", "properties": { "expediente": "32394029\/18", "NOMENC.PAR": "17-33-70-24", "TEL": "18\/12\/2018", "address": "CORDOBA 5877", "TIPO_OBRA": "Micro Obra", "m2": null, "NAME": "Obra NO Iniciada", "Trata": "MDUG0105A", "CIUDAD": "Ciudad Autonoma de Buenos Aires", "PAIS": "Argentina" }, "geometry": { "type": "Point", "coordinates": [ -58.443006540650984, -34.585640882771095 ] } },
{ "type": "Feature", "properties": { "expediente": "26729321\/17", "NOMENC.PAR": "15-81-124B-25", "TEL": "6\/11\/2018", "address": "TEODORO VILARDEBO 2426", "TIPO_OBRA": "Micro Obra", "m2": null, "NAME": "Obra NO Iniciada", "Trata": "MDUG0139A", "CIUDAD": "Ciudad Autonoma de Buenos Aires", "PAIS": "Argentina" }, "geometry": { "type": "Point", "coordinates": [ -58.494259948717897, -34.608305282051298 ] } },
{ "type": "Feature", "properties": { "expediente": "10779762\/18", "NOMENC.PAR": null, "TEL": "22\/5\/2018", "address": "COMBATIENTES MALVINAS 3023", "TIPO_OBRA": "Micro Obra", "m2": null, "NAME": "Obra NO Iniciada", "Trata": "MDUG0139A", "CIUDAD": "Ciudad Autonoma de Buenos Aires", "PAIS": "Argentina" }, "geometry": { "type": "Point", "coordinates": [ -58.471225697959198, -34.586391383673501 ] } },
{ "type": "Feature", "properties": { "expediente": "25046313\/18", "NOMENC.PAR": "03-08-56-16A", "TEL": "13\/11\/2018", "address": "BRASIL 469", "TIPO_OBRA": "Micro Obra", "m2": null, "NAME": "Obra NO Iniciada", "Trata": "MDUG0105B", "CIUDAD": "Ciudad Autonoma de Buenos Aires", "PAIS": "Argentina" }, "geometry": { "type": "Point", "coordinates": [ -58.3721262387755, -34.625367238775503 ] } },
{ "type": "Feature", "properties": { "expediente": "15369949\/18", "NOMENC.PAR": "1-62-111A-21", "TEL": "12\/12\/2018", "address": "CUYO 2262\/64", "TIPO_OBRA": "Micro Obra", "m2": null, "NAME": "Obra NO Iniciada", "Trata": "MDUG0122A", "CIUDAD": "Ciudad Autonoma de Buenos Aires", "PAIS": "Argentina" }, "geometry": { "type": "Point", "coordinates": [ -58.480213828571401, -34.658117887755097 ] } },
{ "type": "Feature", "properties": { "expediente": "23957148\/17", "NOMENC.PAR": "ESTRUCT.", "TEL": "31\/10\/2018", "address": "JOSE BONIFACIO 1772", "TIPO_OBRA": "Micro Obra", "m2": null, "NAME": "Obra NO Iniciada", "Trata": "MDUG0122A", "CIUDAD": "Ciudad Autonoma de Buenos Aires", "PAIS": "Argentina" }, "geometry": { "type": "Point", "coordinates": [ -58.453166057142901, -34.6299692714286 ] } },
{ "type": "Feature", "properties": { "expediente": "11740606\/18", "NOMENC.PAR": "16-41-69A-5", "TEL": "30\/10\/2018", "address": "MANUELA PEDRAZA 3352", "TIPO_OBRA": "Micro Obra", "m2": "12", "NAME": "Obra NO Iniciada", "Trata": "MDUG0139A", "CIUDAD": "Ciudad Autonoma de Buenos Aires", "PAIS": "Argentina" }, "geometry": { "type": "Point", "coordinates": [ -58.474428020408197, -34.556220489795898 ] } },
{ "type": "Feature", "properties": { "expediente": "18289071\/18", "NOMENC.PAR": "1-76-175-10", "TEL": "7\/11\/2018", "address": "OLIDEN 1966", "TIPO_OBRA": "Micro Obra", "m2": null, "NAME": "Obra NO Iniciada", "Trata": "MDUG0105A", "CIUDAD": "Ciudad Autonoma de Buenos Aires", "PAIS": "Argentina" }, "geometry": { "type": "Point", "coordinates": [ -58.499329808088042, -34.656832759858723 ] } },
{ "type": "Feature", "properties": { "expediente": "11007606\/18", "NOMENC.PAR": null, "TEL": "26\/6\/2018", "address": "CONDE 1935\/39", "TIPO_OBRA": "Micro Obra", "m2": "19", "NAME": "Obra NO Iniciada", "Trata": "MDUG0122A", "CIUDAD": "Ciudad Autonoma de Buenos Aires", "PAIS": "Argentina" }, "geometry": { "type": "Point", "coordinates": [ -58.464083673469403, -34.568728673469401 ] } },
{ "type": "Feature", "properties": { "expediente": "22182980\/18", "NOMENC.PAR": "2-9-39-28", "TEL": "11\/12\/2018", "address": "LAVALLE 2337", "TIPO_OBRA": "Micro Obra", "m2": null, "NAME": "Obra NO Iniciada", "Trata": "MDUG0139A", "CIUDAD": "Ciudad Autonoma de Buenos Aires", "PAIS": "Argentina" }, "geometry": { "type": "Point", "coordinates": [ -58.400047126530602, -34.603348373469402 ] } },
{ "type": "Feature", "properties": { "expediente": "15729422\/18", "NOMENC.PAR": "1-74-136-3", "TEL": "10\/12\/2018", "address": "PATRON 6140\/44", "TIPO_OBRA": "Micro Obra", "m2": null, "NAME": "Obra NO Iniciada", "Trata": "MDUG0105A", "CIUDAD": "Ciudad Autonoma de Buenos Aires", "PAIS": "Argentina" }, "geometry": { "type": "Point", "coordinates": [ -58.512340834693902, -34.645426202040802 ] } },
{ "type": "Feature", "properties": { "expediente": "27387702\/18", "NOMENC.PAR": "15-69-16-17", "TEL": "9\/10\/2018", "address": "LASCANO 2958", "TIPO_OBRA": "Micro Obra", "m2": "27", "NAME": "Obra NO Iniciada", "Trata": "MDUG0139A", "CIUDAD": "Ciudad Autonoma de Buenos Aires", "PAIS": "Argentina" }, "geometry": { "type": "Point", "coordinates": [ -58.485759142857098, -34.607355857142899 ] } },
{ "type": "Feature", "properties": { "expediente": "24670675\/18", "NOMENC.PAR": "17-37-019-008A", "TEL": "10\/12\/2018", "address": "ZABALA 3580\/82", "TIPO_OBRA": "Micro Obra", "m2": null, "NAME": "Obra NO Iniciada", "Trata": "MDUG0105B", "CIUDAD": "Ciudad Autonoma de Buenos Aires", "PAIS": "Argentina" }, "geometry": { "type": "Point", "coordinates": [ -58.457394167346898, -34.579521902040803 ] } },
{ "type": "Feature", "properties": { "expediente": "23091492\/18", "NOMENC.PAR": "6-36-27A-25", "TEL": "23\/10\/2018", "address": "JOSE MARMOL 469", "TIPO_OBRA": "Micro Obra", "m2": null, "NAME": "Obra NO Iniciada", "Trata": "MDUG0139A", "CIUDAD": "Ciudad Autonoma de Buenos Aires", "PAIS": "Argentina" }, "geometry": { "type": "Point", "coordinates": [ -58.425804397959197, -34.618831397959198 ] } },
{ "type": "Feature", "properties": { "expediente": "5014368\/18", "NOMENC.PAR": "18-19-98-15B", "TEL": "2\/1\/2019", "address": "VIDT 1631", "TIPO_OBRA": "Micro Obra", "m2": null, "NAME": "Obra Iniciada", "Trata": "MDUG0122A", "CIUDAD": "Ciudad Autonoma de Buenos Aires", "PAIS": "Argentina" }, "geometry": { "type": "Point", "coordinates": [ -58.416510697959197, -34.5918846285714 ] } },
{ "type": "Feature", "properties": { "expediente": "22273306\/17", "NOMENC.PAR": "5-48-117-19", "TEL": "16\/10\/2018", "address": "AVENIDA JUAN BAUTISTA ALBERDI 2360", "TIPO_OBRA": "Micro Obra", "m2": null, "NAME": "Obra NO Iniciada", "Trata": "MDUG0122A", "CIUDAD": "Ciudad Autonoma de Buenos Aires", "PAIS": "Argentina" }, "geometry": { "type": "Point", "coordinates": [ -58.4609979346939, -34.631188389795902 ] } },
{ "type": "Feature", "properties": { "expediente": "24238751\/18", "NOMENC.PAR": "3-8-62-16", "TEL": "4\/10\/2018", "address": "TOMAS LIBERTI 1181", "TIPO_OBRA": "Micro Obra", "m2": null, "NAME": "Obra NO Iniciada", "Trata": "MDUG0139A", "CIUDAD": "Ciudad Autonoma de Buenos Aires", "PAIS": "Argentina" }, "geometry": { "type": "Point", "coordinates": [ -58.3701231020408, -34.6316075306122 ] } },
{ "type": "Feature", "properties": { "expediente": "24716382\/18", "NOMENC.PAR": "16-27-57A-5", "TEL": "28\/11\/2018", "address": "TUNEZ 2583", "TIPO_OBRA": "Micro Obra", "m2": null, "NAME": "Obra NO Iniciada", "Trata": "MDUG0105A", "CIUDAD": "Ciudad Autonoma de Buenos Aires", "PAIS": "Argentina" }, "geometry": { "type": "Point", "coordinates": [ -58.455303626530601, -34.554566908163302 ] } },
{ "type": "Feature", "properties": { "expediente": "10165622\/18", "NOMENC.PAR": "15-49-65-18b", "TEL": "28\/9\/2018", "address": "VIRREY DEL PINO 4139", "TIPO_OBRA": "Micro Obra", "m2": null, "NAME": "Obra NO Iniciada", "Trata": "MDUG0139A", "CIUDAD": "Ciudad Autonoma de Buenos Aires", "PAIS": "Argentina" }, "geometry": { "type": "Point", "coordinates": [ -58.471352920408201, -34.576283234693904 ] } },
{ "type": "Feature", "properties": { "expediente": "28601531\/18", "NOMENC.PAR": "16-41-104-23a", "TEL": "26\/11\/2018", "address": "TAMBORINI 2911", "TIPO_OBRA": "Micro Obra", "m2": null, "NAME": "Obra NO Iniciada", "Trata": "MDUG0105B", "CIUDAD": "Ciudad Autonoma de Buenos Aires", "PAIS": "Argentina" }, "geometry": { "type": "Point", "coordinates": [ -58.469945326530599, -34.555184163265302 ] } },
{ "type": "Feature", "properties": { "expediente": "28435857\/17", "NOMENC.PAR": "15-79-131A-1", "TEL": "20\/12\/2018", "address": "CAMPANA 1746", "TIPO_OBRA": "Micro Obra", "m2": null, "NAME": "Obra Iniciada", "Trata": "MDUG0105A", "CIUDAD": "Ciudad Autonoma de Buenos Aires", "PAIS": "Argentina" }, "geometry": { "type": "Point", "coordinates": [ -58.486125916666701, -34.614768333333302 ] } },
{ "type": "Feature", "properties": { "expediente": "31091847\/18", "NOMENC.PAR": "15-89-92-4a\/4b", "TEL": "23\/11\/2018", "address": "NAVARRO 4646\/48", "TIPO_OBRA": "Micro Obra", "m2": null, "NAME": "Obra NO Iniciada", "Trata": "MDUG0105B", "CIUDAD": "Ciudad Autonoma de Buenos Aires", "PAIS": "Argentina" }, "geometry": { "type": "Point", "coordinates": [ -58.516691775510203, -34.607856877551001 ] } },
{ "type": "Feature", "properties": { "expediente": "12474997\/17", "NOMENC.PAR": null, "TEL": "29\/5\/2018", "address": "ALBARI�O 3457", "TIPO_OBRA": "Micro Obra", "m2": "8", "NAME": "Obra NO Iniciada", "Trata": "MDUG0122A", "CIUDAD": "Ciudad Autonoma de Buenos Aires", "PAIS": "Argentina" }, "geometry": { "type": "Point", "coordinates": [ -58.472175214285699, -34.669457014285697 ] } },
{ "type": "Feature", "properties": { "expediente": "26719707\/17", "NOMENC.PAR": null, "TEL": "16\/3\/2018", "address": "SARMIENTO 62", "TIPO_OBRA": "Micro Obra", "m2": null, "NAME": "Obra NO Iniciada", "Trata": "MDUG0105B", "CIUDAD": "Ciudad Autonoma de Buenos Aires", "PAIS": "Argentina" }, "geometry": { "type": "Point", "coordinates": [ -58.422782, -34.6046912 ] } },
{ "type": "Feature", "properties": { "expediente": "28196702\/18", "NOMENC.PAR": "015-89-58-025", "TEL": "16\/11\/2018", "address": "HABANA 4547", "TIPO_OBRA": "Micro Obra", "m2": null, "NAME": "Obra NO Iniciada", "Trata": "MDUG0105B", "CIUDAD": "Ciudad Autonoma de Buenos Aires", "PAIS": "Argentina" }, "geometry": { "type": "Point", "coordinates": [ -58.520148591836701, -34.601893122448999 ] } },
{ "type": "Feature", "properties": { "expediente": "27336225\/18", "NOMENC.PAR": "05-65-48-26a", "TEL": "4\/12\/2018", "address": "FELIPE VALLESE 2751", "TIPO_OBRA": "Micro Obra", "m2": null, "NAME": "Obra NO Iniciada", "Trata": "MDUG0139A", "CIUDAD": "Ciudad Autonoma de Buenos Aires", "PAIS": "Argentina" }, "geometry": { "type": "Point", "coordinates": [ -58.471003265306102, -34.622476224489802 ] } },
{ "type": "Feature", "properties": { "expediente": "36631404\/15", "NOMENC.PAR": null, "TEL": "13\/4\/2018", "address": "MERCEDES 2346\/60", "TIPO_OBRA": "Micro Obra", "m2": null, "NAME": "Obra NO Iniciada", "Trata": "MDUG0122A", "CIUDAD": "Ciudad Autonoma de Buenos Aires", "PAIS": "Argentina" }, "geometry": { "type": "Point", "coordinates": [ -58.501227612244897, -34.613662469387798 ] } },
{ "type": "Feature", "properties": { "expediente": "68707327\/15", "NOMENC.PAR": "2-32-21-037", "TEL": "22\/8\/2018", "address": "DIOGENES TABORDA 127", "TIPO_OBRA": "Micro Obra", "m2": null, "NAME": "Obra NO Iniciada", "Trata": "#N\/A", "CIUDAD": "Ciudad Autonoma de Buenos Aires", "PAIS": "Argentina" }, "geometry": { "type": "Point", "coordinates": [ -58.412850244898003, -34.640157285714302 ] } },
{ "type": "Feature", "properties": { "expediente": "21207679\/18", "NOMENC.PAR": "17-23-130A-12a", "TEL": "16\/10\/2018", "address": "MIGUELETES 1601\/13", "TIPO_OBRA": "Micro Obra", "m2": null, "NAME": "Obra NO Iniciada", "Trata": "MDUG0139A", "CIUDAD": "Ciudad Autonoma de Buenos Aires", "PAIS": "Argentina" }, "geometry": { "type": "Point", "coordinates": [ -58.4425746, -34.5606621 ] } },
{ "type": "Feature", "properties": { "expediente": "11596777\/18", "NOMENC.PAR": "16-53-5-4", "TEL": "22\/4\/2019", "address": "TOMAS A. LE BRETON 4936", "TIPO_OBRA": "Micro Obra", "m2": null, "NAME": "Obra NO Iniciada", "Trata": "MDUG0139A", "CIUDAD": "Ciudad Autonoma de Buenos Aires", "PAIS": "Argentina" }, "geometry": { "type": "Point", "coordinates": [ -58.487687346938799, -34.569646612244902 ] } },
{ "type": "Feature", "properties": { "expediente": "21900703\/15", "NOMENC.PAR": null, "TEL": "16\/5\/2018", "address": "VERA 453\/55", "TIPO_OBRA": "Micro Obra", "m2": "2", "NAME": "Obra NO Iniciada", "Trata": "MDUG0122A", "CIUDAD": "Ciudad Autonoma de Buenos Aires", "PAIS": "Argentina" }, "geometry": { "type": "Point", "coordinates": [ -58.437191183673498, -34.599404 ] } },
{ "type": "Feature", "properties": { "expediente": "27143221\/18", "NOMENC.PAR": "16-51-3-25", "TEL": "5\/11\/2018", "address": "CERETTI 2082", "TIPO_OBRA": "Micro Obra", "m2": null, "NAME": "Obra NO Iniciada", "Trata": "MDUG0105A", "CIUDAD": "Ciudad Autonoma de Buenos Aires", "PAIS": "Argentina" }, "geometry": { "type": "Point", "coordinates": [ -58.490552183673501, -34.581480734693898 ] } },
{ "type": "Feature", "properties": { "expediente": "25847738\/18", "NOMENC.PAR": "16-63-98A-015", "TEL": "5\/11\/2018", "address": "ANDONAEGUI 3423\/25", "TIPO_OBRA": "Micro Obra", "m2": null, "NAME": "Obra NO Iniciada", "Trata": "MDUG0105A", "CIUDAD": "Ciudad Autonoma de Buenos Aires", "PAIS": "Argentina" }, "geometry": { "type": "Point", "coordinates": [ -58.4971088333333, -34.567113875 ] } },
{ "type": "Feature", "properties": { "expediente": "13272313\/18", "NOMENC.PAR": "16-39-69-6J", "TEL": "5\/11\/2018", "address": "VIDAL 2074\/80", "TIPO_OBRA": "Micro Obra", "m2": null, "NAME": "Obra NO Iniciada", "Trata": "MDUG0105B", "CIUDAD": "Ciudad Autonoma de Buenos Aires", "PAIS": "Argentina" }, "geometry": { "type": "Point", "coordinates": [ -58.460153624489799, -34.564536193877601 ] } },
{ "type": "Feature", "properties": { "expediente": "28268743\/17", "NOMENC.PAR": "9-13-095-001", "TEL": "5\/11\/2018", "address": "CORDOBA 2652\/56", "TIPO_OBRA": "Micro Obra", "m2": null, "NAME": "Obra NO Iniciada", "Trata": "MDUG0105B", "CIUDAD": "Ciudad Autonoma de Buenos Aires", "PAIS": "Argentina" }, "geometry": { "type": "Point", "coordinates": [ -58.381829252147703, -34.5997731 ] } },
{ "type": "Feature", "properties": { "expediente": "30994764\/18", "NOMENC.PAR": "15-47-168-32A", "TEL": "11\/12\/2018", "address": "TENIENTE GENERAL EUSTAQUIO FRIAS 166", "TIPO_OBRA": "Micro Obra", "m2": null, "NAME": "Obra NO Iniciada", "Trata": "MDUG0105A", "CIUDAD": "Ciudad Autonoma de Buenos Aires", "PAIS": "Argentina" }, "geometry": { "type": "Point", "coordinates": [ -58.436195840816303, -34.603310165306098 ] } },
{ "type": "Feature", "properties": { "expediente": "28043343\/16", "NOMENC.PAR": "16-25-72-21b", "TEL": "1\/11\/2018", "address": "LIBERTADOR 6283\/85", "TIPO_OBRA": "Micro Obra", "m2": null, "NAME": "Obra NO Iniciada", "Trata": "MDUG0105A", "CIUDAD": "Ciudad Autonoma de Buenos Aires", "PAIS": "Argentina" }, "geometry": { "type": "Point", "coordinates": [ -58.449625005781144, -34.554232792698095 ] } },
{ "type": "Feature", "properties": { "expediente": "27158320\/18", "NOMENC.PAR": "5-48-151-10e", "TEL": "5\/12\/2018", "address": "LAUTARO 410\/12", "TIPO_OBRA": "Micro Obra", "m2": null, "NAME": "Obra Iniciada", "Trata": "MDUG0105A", "CIUDAD": "Ciudad Autonoma de Buenos Aires", "PAIS": "Argentina" }, "geometry": { "type": "Point", "coordinates": [ -58.455274387755097, -34.632027714285698 ] } },
{ "type": "Feature", "properties": { "expediente": "18113147\/18", "NOMENC.PAR": "2-24-66-24", "TEL": "12\/10\/2018", "address": "15 DE NOVIEMBRE DE 1889 2573", "TIPO_OBRA": "Micro Obra", "m2": null, "NAME": "Obra NO Iniciada", "Trata": "MDUG0139A", "CIUDAD": "Ciudad Autonoma de Buenos Aires", "PAIS": "Argentina" }, "geometry": { "type": "Point", "coordinates": [ -58.399273571428601, -34.633544448979599 ] } },
{ "type": "Feature", "properties": { "expediente": "15785932\/16", "NOMENC.PAR": "18-31-73-35", "TEL": "14\/3\/2019", "address": "LERMA 134", "TIPO_OBRA": "Micro Obra", "m2": null, "NAME": "Obra Iniciada", "Trata": "MDUG0105A", "CIUDAD": "Ciudad Autonoma de Buenos Aires", "PAIS": "Argentina" }, "geometry": { "type": "Point", "coordinates": [ -58.429356869387803, -34.597163391836702 ] } },
{ "type": "Feature", "properties": { "expediente": "30319786\/18", "NOMENC.PAR": "2-24-12-14a", "TEL": "30\/1\/2019", "address": "CORRALES VIEJOS 20", "TIPO_OBRA": "Micro Obra", "m2": "17", "NAME": "Obra NO Iniciada", "Trata": "MDUG0105A", "CIUDAD": "Ciudad Autonoma de Buenos Aires", "PAIS": "Argentina" }, "geometry": { "type": "Point", "coordinates": [ -58.405102926530603, -34.637381165306103 ] } },
{ "type": "Feature", "properties": { "expediente": "18985327\/18", "NOMENC.PAR": "16-41-46-28", "TEL": "24\/10\/2018", "address": "MONROE 3317", "TIPO_OBRA": "Micro Obra", "m2": null, "NAME": "Obra NO Iniciada", "Trata": "MDUG0139A", "CIUDAD": "Ciudad Autonoma de Buenos Aires", "PAIS": "Argentina" }, "geometry": { "type": "Point", "coordinates": [ -58.4599229, -34.5583089 ] } },
{ "type": "Feature", "properties": { "expediente": "9871296\/18", "NOMENC.PAR": "17-23-111-11a", "TEL": "7\/11\/2018", "address": "OLLEROS 1750\/60", "TIPO_OBRA": "Micro Obra", "m2": null, "NAME": "Obra NO Iniciada", "Trata": "MDUG0139A", "CIUDAD": "Ciudad Autonoma de Buenos Aires", "PAIS": "Argentina" }, "geometry": { "type": "Point", "coordinates": [ -58.4454183, -34.5730277 ] } },
{ "type": "Feature", "properties": { "expediente": "10820376\/18", "NOMENC.PAR": "7-17-061-013", "TEL": "13\/12\/2018", "address": "PALESTINA 883", "TIPO_OBRA": "Micro Obra", "m2": null, "NAME": "Obra NO Iniciada", "Trata": "#N\/A", "CIUDAD": "Ciudad Autonoma de Buenos Aires", "PAIS": "Argentina" }, "geometry": { "type": "Point", "coordinates": [ -58.3945392, -34.5979334 ] } },
{ "type": "Feature", "properties": { "expediente": "3028304\/17", "NOMENC.PAR": null, "TEL": "16\/4\/2018", "address": "RIO CUARTO 3032\/38", "TIPO_OBRA": "Micro Obra", "m2": null, "NAME": "Obra NO Iniciada", "Trata": "MDUG0122A", "CIUDAD": "Ciudad Autonoma de Buenos Aires", "PAIS": "Argentina" }, "geometry": { "type": "Point", "coordinates": [ -58.389539553061198, -34.652566126530601 ] } },
{ "type": "Feature", "properties": { "expediente": "30962254\/18", "NOMENC.PAR": "17-37-094-27A", "TEL": "15\/3\/2019", "address": "CAPITAN GENERAL RAMON FREIRE 1725", "TIPO_OBRA": "Micro Obra", "m2": "8,24", "NAME": "Obra Iniciada", "Trata": "MDUG0122A", "CIUDAD": "Ciudad Autonoma de Buenos Aires", "PAIS": "Argentina" }, "geometry": { "type": "Point", "coordinates": [ -58.461167020408197, -34.5702068571429 ] } },
{ "type": "Feature", "properties": { "expediente": "30299430\/17", "NOMENC.PAR": null, "TEL": "9\/4\/2018", "address": "MENDOZA 2923\/27", "TIPO_OBRA": "Micro Obra", "m2": "30", "NAME": "Obra NO Iniciada", "Trata": "MDUG0105A", "CIUDAD": "Ciudad Autonoma de Buenos Aires", "PAIS": "Argentina" }, "geometry": { "type": "Point", "coordinates": [ -58.462511371428597, -34.563928630612203 ] } },
{ "type": "Feature", "properties": { "expediente": "21876910\/17", "NOMENC.PAR": "12-4-11-15", "TEL": "7\/11\/2018", "address": "PIEDRAS 962", "TIPO_OBRA": "Micro Obra", "m2": null, "NAME": "Obra NO Iniciada", "Trata": "MDUG0139A", "CIUDAD": "Ciudad Autonoma de Buenos Aires", "PAIS": "Argentina" }, "geometry": { "type": "Point", "coordinates": [ -58.377223608163298, -34.6192519836735 ] } },
{ "type": "Feature", "properties": { "expediente": "17467703\/17", "NOMENC.PAR": null, "TEL": "28\/3\/2018", "address": "NACIONES UNIDAS 2924", "TIPO_OBRA": "Micro Obra", "m2": "23", "NAME": "Obra Iniciada", "Trata": "MDUG0110B", "CIUDAD": "Ciudad Autonoma de Buenos Aires", "PAIS": "Argentina" }, "geometry": { "type": "Point", "coordinates": [ -58.520683142857102, -34.614582040816302 ] } },
{ "type": "Feature", "properties": { "expediente": "27168473\/16", "NOMENC.PAR": null, "TEL": "17\/1\/2018", "address": "CARLOS CALVO 2363", "TIPO_OBRA": "Micro Obra", "m2": "26", "NAME": "Obra Iniciada", "Trata": "MDUG0122A", "CIUDAD": "Ciudad Autonoma de Buenos Aires", "PAIS": "Argentina" }, "geometry": { "type": "Point", "coordinates": [ -58.399299693877602, -34.6207762857143 ] } },
{ "type": "Feature", "properties": { "expediente": "23912175\/18", "NOMENC.PAR": "85-65-21", "TEL": "22\/2\/2019", "address": "CARRASCO 840", "TIPO_OBRA": "Micro Obra", "m2": "17", "NAME": "Obra Iniciada", "Trata": "MDUG0122A", "CIUDAD": "Ciudad Autonoma de Buenos Aires", "PAIS": "Argentina" }, "geometry": { "type": "Point", "coordinates": [ -58.4950642, -34.6297025 ] } },
{ "type": "Feature", "properties": { "expediente": "28453649\/18", "NOMENC.PAR": "14-1-20-002", "TEL": "22\/4\/2019", "address": "CORRIENTES 626\/32", "TIPO_OBRA": "Micro Obra", "m2": "18,5", "NAME": "Obra Iniciada", "Trata": "MDUG0122A", "CIUDAD": "Ciudad Autonoma de Buenos Aires", "PAIS": "Argentina" }, "geometry": { "type": "Point", "coordinates": [ -58.4441599, -34.5946437 ] } },
{ "type": "Feature", "properties": { "expediente": "19556787\/18", "NOMENC.PAR": "15-49-58-32", "TEL": "30\/8\/2018", "address": "AVENIDA DE LOS INCAS 4255", "TIPO_OBRA": "Micro Obra", "m2": "5", "NAME": "Obra NO Iniciada", "Trata": "MDUG0122A", "CIUDAD": "Ciudad Autonoma de Buenos Aires", "PAIS": "Argentina" }, "geometry": { "type": "Point", "coordinates": [ -58.471564659183699, -34.579577475510199 ] } },
{ "type": "Feature", "properties": { "expediente": "14701929\/17", "NOMENC.PAR": "15-59-139-001", "TEL": "24\/4\/2019", "address": "PAYSANDU 1194", "TIPO_OBRA": "Micro Obra", "m2": "27,57", "NAME": "Obra Iniciada", "Trata": "MDUG0122A", "CIUDAD": "Ciudad Autonoma de Buenos Aires", "PAIS": "Argentina" }, "geometry": { "type": "Point", "coordinates": [ -58.454361122449001, -34.610419816326498 ] } },
{ "type": "Feature", "properties": { "expediente": "23515034\/18", "NOMENC.PAR": "16-55-253-03", "TEL": "28\/11\/2018", "address": "ESTOMBA 3745", "TIPO_OBRA": "Micro Obra", "m2": null, "NAME": "Obra NO Iniciada", "Trata": "MDUG0105B", "CIUDAD": "Ciudad Autonoma de Buenos Aires", "PAIS": "Argentina" }, "geometry": { "type": "Point", "coordinates": [ -58.483392310204103, -34.555388877551003 ] } },
{ "type": "Feature", "properties": { "expediente": "34250611\/18", "NOMENC.PAR": "16-27-073-028", "TEL": "30\/4\/2019", "address": "IBERA 1727\/31", "TIPO_OBRA": "Micro Obra", "m2": "25,67", "NAME": "Obra Iniciada", "Trata": "MDUG0122A", "CIUDAD": "Ciudad Autonoma de Buenos Aires", "PAIS": "Argentina" }, "geometry": { "type": "Point", "coordinates": [ -58.457504804081601, -34.5497962102041 ] } },
{ "type": "Feature", "properties": { "expediente": "113945\/16", "NOMENC.PAR": null, "TEL": "21\/3\/2018", "address": "MONTEAGUDO 120", "TIPO_OBRA": "Micro Obra", "m2": null, "NAME": "Obra NO Iniciada", "Trata": "MDUG0122A", "CIUDAD": "Ciudad Autonoma de Buenos Aires", "PAIS": "Argentina" }, "geometry": { "type": "Point", "coordinates": [ -58.405188979591799, -34.638668326530599 ] } },
{ "type": "Feature", "properties": { "expediente": "32750438\/18", "NOMENC.PAR": "16-41-77-20", "TEL": "27\/3\/2019", "address": "QUESADA 3145", "TIPO_OBRA": "Micro Obra", "m2": null, "NAME": "Obra NO Iniciada", "Trata": "MDUG0139A", "CIUDAD": "Ciudad Autonoma de Buenos Aires", "PAIS": "Argentina" }, "geometry": { "type": "Point", "coordinates": [ -58.470498306122401, -34.5580390816326 ] } },
{ "type": "Feature", "properties": { "expediente": "9430917\/18", "NOMENC.PAR": "16-43-07-10", "TEL": "22\/11\/2018", "address": "NAON 4181", "TIPO_OBRA": "Micro Obra", "m2": null, "NAME": "Obra Iniciada", "Trata": "MDUG0105A", "CIUDAD": "Ciudad Autonoma de Buenos Aires", "PAIS": "Argentina" }, "geometry": { "type": "Point", "coordinates": [ -58.485234716879489, -34.551721851495721 ] } },
{ "type": "Feature", "properties": { "expediente": "29974317\/17", "NOMENC.PAR": "16-27-26-10g", "TEL": "3\/5\/2019", "address": "CUBA 2887", "TIPO_OBRA": "Micro Obra", "m2": null, "NAME": "Obra Iniciada", "Trata": "MDUG0105A", "CIUDAD": "Ciudad Autonoma de Buenos Aires", "PAIS": "Argentina" }, "geometry": { "type": "Point", "coordinates": [ -58.449826334981204, -34.53814025 ] } },
{ "type": "Feature", "properties": { "expediente": "27629079\/16", "NOMENC.PAR": "15-59-132-5B", "TEL": "7\/5\/2019", "address": "SAN MARTIN 2376", "TIPO_OBRA": "Micro Obra", "m2": null, "NAME": "Obra Iniciada", "Trata": "MDUG0105A", "CIUDAD": "Ciudad Autonoma de Buenos Aires", "PAIS": "Argentina" }, "geometry": { "type": "Point", "coordinates": [ -58.3733603, -34.5929728 ] } },
{ "type": "Feature", "properties": { "expediente": "31523021\/18", "NOMENC.PAR": "16-41-066-013", "TEL": "25\/2\/2019", "address": "QUESADA 3276", "TIPO_OBRA": "Micro Obra", "m2": null, "NAME": "Obra NO Iniciada", "Trata": "MDUG0122A", "CIUDAD": "Ciudad Autonoma de Buenos Aires", "PAIS": "Argentina" }, "geometry": { "type": "Point", "coordinates": [ -58.47224615, -34.55921455 ] } },
{ "type": "Feature", "properties": { "expediente": "28040279\/16", "NOMENC.PAR": "16-43-16-22c", "TEL": "20\/11\/2018", "address": "MELIAN 3646", "TIPO_OBRA": "Micro Obra", "m2": "13", "NAME": "Obra Iniciada", "Trata": "MDUG0105A", "CIUDAD": "Ciudad Autonoma de Buenos Aires", "PAIS": "Argentina" }, "geometry": { "type": "Point", "coordinates": [ -58.480170020408202, -34.554894448979603 ] } },
{ "type": "Feature", "properties": { "expediente": "17780748\/16", "NOMENC.PAR": "16-41-56-7", "TEL": "21\/5\/2019", "address": "NU�EZ 3486", "TIPO_OBRA": "Micro Obra", "m2": null, "NAME": "Obra Iniciada", "Trata": "MDUG0105A", "CIUDAD": "Ciudad Autonoma de Buenos Aires", "PAIS": "Argentina" }, "geometry": { "type": "Point", "coordinates": [ -58.4621491, -34.5453484 ] } },
{ "type": "Feature", "properties": { "expediente": "6686119\/17", "NOMENC.PAR": "6-40-115-12", "TEL": "21\/5\/2019", "address": "FORMOSA 286", "TIPO_OBRA": "Micro Obra", "m2": null, "NAME": "Obra Iniciada", "Trata": "MDUG0110B", "CIUDAD": "Ciudad Autonoma de Buenos Aires", "PAIS": "Argentina" }, "geometry": { "type": "Point", "coordinates": [ -58.432321985714303, -34.621106157142897 ] } },
{ "type": "Feature", "properties": { "expediente": "31824086\/18", "NOMENC.PAR": "15-47-94-15", "TEL": "27\/2\/2019", "address": "HIDALGO 1637\/39", "TIPO_OBRA": "Micro Obra", "m2": null, "NAME": "Obra NO Iniciada", "Trata": "MDUG0139A", "CIUDAD": "Ciudad Autonoma de Buenos Aires", "PAIS": "Argentina" }, "geometry": { "type": "Point", "coordinates": [ -58.445148571428597, -34.602519469387801 ] } },
{ "type": "Feature", "properties": { "expediente": "20552527\/18", "NOMENC.PAR": "18-19-8-15", "TEL": "5\/12\/2018", "address": "GASCON 1285\/87", "TIPO_OBRA": "Micro Obra", "m2": null, "NAME": "Obra NO Iniciada", "Trata": "MDUG0105B", "CIUDAD": "Ciudad Autonoma de Buenos Aires", "PAIS": "Argentina" }, "geometry": { "type": "Point", "coordinates": [ -58.424153371428602, -34.6115254938776 ] } },
{ "type": "Feature", "properties": { "expediente": "7897288\/17", "NOMENC.PAR": "16-51-93-21A", "TEL": "30\/5\/2019", "address": "LA PAMPA 4307\/31", "TIPO_OBRA": "Micro Obra", "m2": null, "NAME": "Obra Iniciada", "Trata": "MDUG0105A", "CIUDAD": "Ciudad Autonoma de Buenos Aires", "PAIS": "Argentina" }, "geometry": { "type": "Point", "coordinates": [ -58.4729722, -34.5755887938776 ] } },
{ "type": "Feature", "properties": { "expediente": "6483908\/16", "NOMENC.PAR": "17-35-100-16", "TEL": "30\/5\/2019", "address": "BONPLAND 2251\/53", "TIPO_OBRA": "Micro Obra", "m2": null, "NAME": "Obra Iniciada", "Trata": "MDUG0105A", "CIUDAD": "Ciudad Autonoma de Buenos Aires", "PAIS": "Argentina" }, "geometry": { "type": "Point", "coordinates": [ -58.432353914285699, -34.579109214285701 ] } },
{ "type": "Feature", "properties": { "expediente": "15791842\/17", "NOMENC.PAR": "07-17-70-22a", "TEL": "31\/5\/2019", "address": "SARMIENTO 4157\/63", "TIPO_OBRA": "Micro Obra", "m2": null, "NAME": "Obra Iniciada", "Trata": "MDUG0105A", "CIUDAD": "Ciudad Autonoma de Buenos Aires", "PAIS": "Argentina" }, "geometry": { "type": "Point", "coordinates": [ -58.423658357142898, -34.604511457142898 ] } },
{ "type": "Feature", "properties": { "expediente": "12702295\/18", "NOMENC.PAR": "11-09-074-2C", "TEL": "22\/2\/2019", "address": "B. MITRE 1820", "TIPO_OBRA": "Micro Obra", "m2": null, "NAME": "Obra NO Iniciada", "Trata": "MDUG0122A", "CIUDAD": "Ciudad Autonoma de Buenos Aires", "PAIS": "Argentina" }, "geometry": { "type": "Point", "coordinates": [ -58.392620861180305, -34.608079707692511 ] } },
{ "type": "Feature", "properties": { "expediente": "7364614\/16", "NOMENC.PAR": "8-22-34-5", "TEL": "7\/3\/2019", "address": "HUMBERTO I 2230", "TIPO_OBRA": "Micro Obra", "m2": null, "NAME": "Obra Iniciada", "Trata": "MDUG0105A", "CIUDAD": "Ciudad Autonoma de Buenos Aires", "PAIS": "Argentina" }, "geometry": { "type": "Point", "coordinates": [ -58.3972154285714, -34.621952285714301 ] } },
{ "type": "Feature", "properties": { "expediente": "22827160\/17", "NOMENC.PAR": null, "TEL": "16\/3\/2018", "address": "PICO 2825", "TIPO_OBRA": "Micro Obra", "m2": "1", "NAME": "Obra Iniciada", "Trata": "MDUG0139A", "CIUDAD": "Ciudad Autonoma de Buenos Aires", "PAIS": "Argentina" }, "geometry": { "type": "Point", "coordinates": [ -58.478243214285698, -34.5419276 ] } },
{ "type": "Feature", "properties": { "expediente": "29453813\/17", "NOMENC.PAR": "5-42-69-10", "TEL": "3\/5\/2019", "address": "BALDOMERO FERNANDEZ MORENO 1272", "TIPO_OBRA": "Micro Obra", "m2": null, "NAME": "Obra Iniciada", "Trata": "MDUG0105A", "CIUDAD": "Ciudad Autonoma de Buenos Aires", "PAIS": "Argentina" }, "geometry": { "type": "Point", "coordinates": [ -58.444559571428599, -34.6319877142857 ] } },
{ "type": "Feature", "properties": { "expediente": "29343221\/17", "NOMENC.PAR": "16-63-118-11a", "TEL": "7\/5\/2019", "address": "AVENIDA TRIUNVIRATO 5369", "TIPO_OBRA": "Micro Obra", "m2": null, "NAME": "Obra Iniciada", "Trata": "MDUG0105A", "CIUDAD": "Ciudad Autonoma de Buenos Aires", "PAIS": "Argentina" }, "geometry": { "type": "Point", "coordinates": [ -58.491764546938803, -34.569719077550999 ] } },
{ "type": "Feature", "properties": { "expediente": "31070422\/18", "NOMENC.PAR": "16-053-040-032", "TEL": "15\/2\/2019", "address": "MILLER 3240", "TIPO_OBRA": "Micro Obra", "m2": null, "NAME": "Obra NO Iniciada", "Trata": "MDUG0139A", "CIUDAD": "Ciudad Autonoma de Buenos Aires", "PAIS": "Argentina" }, "geometry": { "type": "Point", "coordinates": [ -58.486870632653101, -34.5646685102041 ] } },
{ "type": "Feature", "properties": { "expediente": "17916913\/16", "NOMENC.PAR": "6-40-115-12", "TEL": "21\/5\/2019", "address": "BLANCO ENCALADA 4685", "TIPO_OBRA": "Micro Obra", "m2": null, "NAME": "Obra Iniciada", "Trata": "MDUG0110A", "CIUDAD": "Ciudad Autonoma de Buenos Aires", "PAIS": "Argentina" }, "geometry": { "type": "Point", "coordinates": [ -58.4825439090909, -34.573181242424198 ] } },
{ "type": "Feature", "properties": { "expediente": "12996602\/18", "NOMENC.PAR": "16-27-40-10", "TEL": "11\/10\/2018", "address": "ARCOS 3187\/89", "TIPO_OBRA": "Micro Obra", "m2": null, "NAME": "Obra NO Iniciada", "Trata": "MDUG0139A", "CIUDAD": "Ciudad Autonoma de Buenos Aires", "PAIS": "Argentina" }, "geometry": { "type": "Point", "coordinates": [ -58.462670455102, -34.550746610204101 ] } },
{ "type": "Feature", "properties": { "expediente": "20441884\/18", "NOMENC.PAR": "17-37-23-19", "TEL": "22\/5\/2019", "address": "AVENIDA ALVAREZ THOMAS 707", "TIPO_OBRA": "Micro Obra", "m2": null, "NAME": "Obra Iniciada", "Trata": "MDUG0105A", "CIUDAD": "Ciudad Autonoma de Buenos Aires", "PAIS": "Argentina" }, "geometry": { "type": "Point", "coordinates": [ -58.452093467647103, -34.579977679411797 ] } },
{ "type": "Feature", "properties": { "expediente": "30846562\/18", "NOMENC.PAR": "16-29-28-20", "TEL": "2\/1\/2019", "address": "ARCOS 3726", "TIPO_OBRA": "Micro Obra", "m2": "17", "NAME": "Obra NO Iniciada", "Trata": "MDUG0122A", "CIUDAD": "Ciudad Autonoma de Buenos Aires", "PAIS": "Argentina" }, "geometry": { "type": "Point", "coordinates": [ -58.466106438775498, -34.546406553061203 ] } },
{ "type": "Feature", "properties": { "expediente": "32782861\/18", "NOMENC.PAR": "15-79-102-16", "TEL": "30\/1\/2019", "address": "E. LAMARCA 1069", "TIPO_OBRA": "Micro Obra", "m2": "8", "NAME": "Obra NO Iniciada", "Trata": "MDUG0122A", "CIUDAD": "Ciudad Autonoma de Buenos Aires", "PAIS": "Argentina" }, "geometry": { "type": "Point", "coordinates": [ -58.476699386102901, -34.6323237 ] } },
{ "type": "Feature", "properties": { "expediente": "31286225\/18", "NOMENC.PAR": "03-18-100-16A", "TEL": "7\/12\/2018", "address": "IRIARTE 2155\/59", "TIPO_OBRA": "Micro Obra", "m2": null, "NAME": "Obra Iniciada", "Trata": "MDUG0105B", "CIUDAD": "Ciudad Autonoma de Buenos Aires", "PAIS": "Argentina" }, "geometry": { "type": "Point", "coordinates": [ -58.377806179591801, -34.648866930612201 ] } },
{ "type": "Feature", "properties": { "expediente": "27074313\/18", "NOMENC.PAR": "15-79-69-17", "TEL": "28\/11\/2018", "address": "SAN BLAS 3846\/48", "TIPO_OBRA": "Micro Obra", "m2": null, "NAME": "Obra NO Iniciada", "Trata": "#N\/A", "CIUDAD": "Ciudad Autonoma de Buenos Aires", "PAIS": "Argentina" }, "geometry": { "type": "Point", "coordinates": [ -58.491934553061199, -34.618032144898002 ] } },
{ "type": "Feature", "properties": { "expediente": "30637748\/18", "NOMENC.PAR": "7-45-154-33b", "TEL": "18\/12\/2018", "address": "RIO DE JANEIRO 844", "TIPO_OBRA": "Micro Obra", "m2": null, "NAME": "Obra Iniciada", "Trata": "MDUG0105B", "CIUDAD": "Ciudad Autonoma de Buenos Aires", "PAIS": "Argentina" }, "geometry": { "type": "Point", "coordinates": [ -58.431138428571401, -34.60562 ] } },
{ "type": "Feature", "properties": { "expediente": "18357376\/18", "NOMENC.PAR": "15-91-79B-24", "TEL": "10\/8\/2018", "address": "LAGRANGE 1230\/36", "TIPO_OBRA": "Micro Obra", "m2": null, "NAME": "Obra NO Iniciada", "Trata": "MDUG0122A", "CIUDAD": "Ciudad Autonoma de Buenos Aires", "PAIS": "Argentina" }, "geometry": { "type": "Point", "coordinates": [ -58.512170571428598, -34.627929 ] } },
{ "type": "Feature", "properties": { "expediente": "31125522\/18", "NOMENC.PAR": "17-35-03-23", "TEL": "18\/12\/2018", "address": "JOSE ANTONIO CABRERA 5663", "TIPO_OBRA": "Micro Obra", "m2": null, "NAME": "Obra Iniciada", "Trata": "MDUG0105B", "CIUDAD": "Ciudad Autonoma de Buenos Aires", "PAIS": "Argentina" }, "geometry": { "type": "Point", "coordinates": [ -58.4247491, -34.5955281 ] } },
{ "type": "Feature", "properties": { "expediente": "9412614\/18", "NOMENC.PAR": "16-27-07-20", "TEL": "24\/1\/2019", "address": "V. OBLIGADO 3186", "TIPO_OBRA": "Micro Obra", "m2": null, "NAME": "Obra NO Iniciada", "Trata": "MDUG0122A", "CIUDAD": "Ciudad Autonoma de Buenos Aires", "PAIS": "Argentina" }, "geometry": { "type": "Point", "coordinates": [ -58.4580226, -34.5589012 ] } },
{ "type": "Feature", "properties": { "expediente": "10406979\/18", "NOMENC.PAR": "15-59-92-21", "TEL": "15\/11\/2018", "address": "DONATO ALVAREZ 2049", "TIPO_OBRA": "Micro Obra", "m2": null, "NAME": "Obra Iniciada", "Trata": "MDUG0105A", "CIUDAD": "Ciudad Autonoma de Buenos Aires", "PAIS": "Argentina" }, "geometry": { "type": "Point", "coordinates": [ -58.4643809591837, -34.603710218367297 ] } },
{ "type": "Feature", "properties": { "expediente": "27357045\/18", "NOMENC.PAR": "9-13-75-36a", "TEL": "23\/11\/2018", "address": "SAN LUIS 3001\/07", "TIPO_OBRA": "Micro Obra", "m2": null, "NAME": "Obra NO Iniciada", "Trata": "MDUG0105B", "CIUDAD": "Ciudad Autonoma de Buenos Aires", "PAIS": "Argentina" }, "geometry": { "type": "Point", "coordinates": [ -58.4072626, -34.5995287 ] } },
{ "type": "Feature", "properties": { "expediente": "26596975\/18", "NOMENC.PAR": "15-71-092-17", "TEL": "13\/11\/2018", "address": "NAVARRO 2569", "TIPO_OBRA": "Micro Obra", "m2": null, "NAME": "Obra Iniciada", "Trata": "MDUG0105B", "CIUDAD": "Ciudad Autonoma de Buenos Aires", "PAIS": "Argentina" }, "geometry": { "type": "Point", "coordinates": [ -58.491221497959202, -34.591852569387797 ] } },
{ "type": "Feature", "properties": { "expediente": "21782933\/17", "NOMENC.PAR": null, "TEL": "28\/5\/2018", "address": "CABELLO 360\/45", "TIPO_OBRA": "Micro Obra", "m2": "14", "NAME": "Obra NO Iniciada", "Trata": "MDUG0122A", "CIUDAD": "Ciudad Autonoma de Buenos Aires", "PAIS": "Argentina" }, "geometry": { "type": "Point", "coordinates": [ -58.4098307, -34.5810246 ] } },
{ "type": "Feature", "properties": { "expediente": "16874037\/18", "NOMENC.PAR": "12-14-69-50", "TEL": "18\/7\/2018", "address": "BERNARDO DE IRIGOYEN 1428\/40", "TIPO_OBRA": "Micro Obra", "m2": null, "NAME": "Obra NO Iniciada", "Trata": "MDUG0139A", "CIUDAD": "Ciudad Autonoma de Buenos Aires", "PAIS": "Argentina" }, "geometry": { "type": "Point", "coordinates": [ -58.380531245833303, -34.608718512499998 ] } },
{ "type": "Feature", "properties": { "expediente": "31926761\/18", "NOMENC.PAR": "16-39-58-24b", "TEL": "18\/1\/2019", "address": "ZAPIOLA 2309\/19", "TIPO_OBRA": "Micro Obra", "m2": null, "NAME": "Obra NO Iniciada", "Trata": "MDUG0139A", "CIUDAD": "Ciudad Autonoma de Buenos Aires", "PAIS": "Argentina" }, "geometry": { "type": "Point", "coordinates": [ -58.464972648979597, -34.563881330612197 ] } },
{ "type": "Feature", "properties": { "expediente": "8560893\/18", "NOMENC.PAR": "15-89-95-11b", "TEL": "12\/7\/2018", "address": "FRANCISCO BEIRO 4591\/93", "TIPO_OBRA": "Micro Obra", "m2": null, "NAME": "Obra NO Iniciada", "Trata": "MDUG0139A", "CIUDAD": "Ciudad Autonoma de Buenos Aires", "PAIS": "Argentina" }, "geometry": { "type": "Point", "coordinates": [ -58.515347206746398, -34.607807045997134 ] } },
{ "type": "Feature", "properties": { "expediente": "19521700\/18", "NOMENC.PAR": "01-74-19-43", "TEL": "19\/10\/2018", "address": "MOLINA 1631\/33", "TIPO_OBRA": "Micro Obra", "m2": "28", "NAME": "Obra Iniciada", "Trata": "MDUG0122A", "CIUDAD": "Ciudad Autonoma de Buenos Aires", "PAIS": "Argentina" }, "geometry": { "type": "Point", "coordinates": [ -58.519719285714302, -34.656681653061199 ] } },
{ "type": "Feature", "properties": { "expediente": "20139121\/18", "NOMENC.PAR": "18-31-3-18", "TEL": "12\/12\/2018", "address": "CORRIENTES 5217\/21", "TIPO_OBRA": "Micro Obra", "m2": null, "NAME": "Obra Iniciada", "Trata": "MDUG0122A", "CIUDAD": "Ciudad Autonoma de Buenos Aires", "PAIS": "Argentina" }, "geometry": { "type": "Point", "coordinates": [ -58.4441599, -34.5946437 ] } },
{ "type": "Feature", "properties": { "expediente": "13207935\/18", "NOMENC.PAR": "18-21-118-6b", "TEL": "14\/1\/2019", "address": "JERONIMO SALGUERO 3147\/3211", "TIPO_OBRA": "Micro Obra", "m2": null, "NAME": "Obra NO Iniciada", "Trata": "MDUG0139A", "CIUDAD": "Ciudad Autonoma de Buenos Aires", "PAIS": "Argentina" }, "geometry": { "type": "Point", "coordinates": [ -58.4041202, -34.5759248 ] } },
{ "type": "Feature", "properties": { "expediente": "26287366\/18", "NOMENC.PAR": "5-81-82-36", "TEL": "4\/1\/2019", "address": "SAN NICOLAS 2482", "TIPO_OBRA": "Micro Obra", "m2": null, "NAME": "Obra NO Iniciada", "Trata": "MDUG0122A", "CIUDAD": "Ciudad Autonoma de Buenos Aires", "PAIS": "Argentina" }, "geometry": { "type": "Point", "coordinates": [ -58.3844969, -34.6044631 ] } },
{ "type": "Feature", "properties": { "expediente": "4284527\/17", "NOMENC.PAR": "16-27-102-16", "TEL": "21\/9\/2018", "address": "HERNANDEZ 2734", "TIPO_OBRA": "Micro Obra", "m2": null, "NAME": "Obra Iniciada", "Trata": "MDUG0122A", "CIUDAD": "Ciudad Autonoma de Buenos Aires", "PAIS": "Argentina" }, "geometry": { "type": "Point", "coordinates": [ -58.3871199, -34.5994329 ] } },
{ "type": "Feature", "properties": { "expediente": "23173603\/17", "NOMENC.PAR": "1-29-010-008", "TEL": "14\/12\/2017", "address": "AV.CABILDO 4693\/99", "TIPO_OBRA": "Micro Obra", "m2": null, "NAME": "Obra NO Iniciada", "Trata": "MDUG0122A", "CIUDAD": "Ciudad Autonoma de Buenos Aires", "PAIS": "Argentina" }, "geometry": { "type": "Point", "coordinates": [ -58.4368447, -34.574045 ] } },
{ "type": "Feature", "properties": { "expediente": "12290445\/18", "NOMENC.PAR": "15-83-245-31", "TEL": "9\/1\/2019", "address": "PAREJA 3217", "TIPO_OBRA": "Micro Obra", "m2": "23", "NAME": "Obra NO Iniciada", "Trata": "MDUG0122A", "CIUDAD": "Ciudad Autonoma de Buenos Aires", "PAIS": "Argentina" }, "geometry": { "type": "Point", "coordinates": [ -58.503138448979598, -34.592541761224503 ] } },
{ "type": "Feature", "properties": { "expediente": "30423103\/17", "NOMENC.PAR": "18-31-82-10", "TEL": "22\/8\/2018", "address": "GODOY CRUZ 1325\/27", "TIPO_OBRA": "Micro Obra", "m2": "18", "NAME": "Obra Iniciada", "Trata": "MDUG0122A", "CIUDAD": "Ciudad Autonoma de Buenos Aires", "PAIS": "Argentina" }, "geometry": { "type": "Point", "coordinates": [ -58.437725873469397, -34.590209289795901 ] } },
{ "type": "Feature", "properties": { "expediente": "3116134\/16", "NOMENC.PAR": "15-81-11-7", "TEL": "13\/9\/2018", "address": "SANABRIA 3150\/52", "TIPO_OBRA": "Micro Obra", "m2": null, "NAME": "Obra NO Iniciada", "Trata": "MDUG1001B", "CIUDAD": "Ciudad Autonoma de Buenos Aires", "PAIS": "Argentina" }, "geometry": { "type": "Point", "coordinates": [ -58.509367612244901, -34.607880061224499 ] } },
{ "type": "Feature", "properties": { "expediente": "27550416\/15", "NOMENC.PAR": "16-29-103-6", "TEL": "22\/8\/2018", "address": "DEHEZA 1670\/74", "TIPO_OBRA": "Micro Obra", "m2": null, "NAME": "Obra Iniciada", "Trata": "MDUG1001B", "CIUDAD": "Ciudad Autonoma de Buenos Aires", "PAIS": "Argentina" }, "geometry": { "type": "Point", "coordinates": [ -58.466533328571401, -34.537969232653097 ] } },
{ "type": "Feature", "properties": { "expediente": "20363102\/17", "NOMENC.PAR": null, "TEL": "29\/5\/2018", "address": "JOSE LUIS CANTILO 5396", "TIPO_OBRA": "Micro Obra", "m2": null, "NAME": "Obra NO Iniciada", "Trata": "MDUG0122A", "CIUDAD": "Ciudad Autonoma de Buenos Aires", "PAIS": "Argentina" }, "geometry": { "type": "Point", "coordinates": [ -58.527395916666698, -34.613801916666702 ] } },
{ "type": "Feature", "properties": { "expediente": "19609690\/18", "NOMENC.PAR": "1-38-162-007", "TEL": "20\/11\/2018", "address": "GIBSON 4019\/21", "TIPO_OBRA": "Micro Obra", "m2": null, "NAME": "Obra Iniciada", "Trata": "MDUG0122A", "CIUDAD": "Ciudad Autonoma de Buenos Aires", "PAIS": "Argentina" }, "geometry": { "type": "Point", "coordinates": [ -58.420253020408197, -34.638439571428599 ] } },
{ "type": "Feature", "properties": { "expediente": "32389904\/18", "NOMENC.PAR": "5-65-122-14", "TEL": "7\/12\/2018", "address": "GRANADEROS 331\/33", "TIPO_OBRA": "Micro Obra", "m2": null, "NAME": "Obra Iniciada", "Trata": "MDUG0105A", "CIUDAD": "Ciudad Autonoma de Buenos Aires", "PAIS": "Argentina" }, "geometry": { "type": "Point", "coordinates": [ -58.4607669653061, -34.623738314285703 ] } },
{ "type": "Feature", "properties": { "expediente": "19901521\/17", "NOMENC.PAR": "16-43-100-30", "TEL": "3\/1\/2019", "address": "ZAPIOLA 4342", "TIPO_OBRA": "Micro Obra", "m2": null, "NAME": "Obra NO Iniciada", "Trata": "MDUG1001B", "CIUDAD": "Ciudad Autonoma de Buenos Aires", "PAIS": "Argentina" }, "geometry": { "type": "Point", "coordinates": [ -58.478226178108983, -34.546218133281734 ] } },
{ "type": "Feature", "properties": { "expediente": "18606519\/18", "NOMENC.PAR": "17-35-120-30a", "TEL": "30\/10\/2018", "address": "SANTA FE 5268\/70", "TIPO_OBRA": "Micro Obra", "m2": null, "NAME": "Obra NO Iniciada", "Trata": "MDUG0139A", "CIUDAD": "Ciudad Autonoma de Buenos Aires", "PAIS": "Argentina" }, "geometry": { "type": "Point", "coordinates": [ -58.382117600912501, -34.59618315 ] } },
{ "type": "Feature", "properties": { "expediente": "11826912\/16", "NOMENC.PAR": null, "TEL": "4\/5\/2018", "address": "ROGELIO YRURTIA 5788", "TIPO_OBRA": "Micro Obra", "m2": "7", "NAME": "Obra Iniciada", "Trata": "MDUG0122A", "CIUDAD": "Ciudad Autonoma de Buenos Aires", "PAIS": "Argentina" }, "geometry": { "type": "Point", "coordinates": [ -58.502386576348897, -34.563020060499497 ] } },
{ "type": "Feature", "properties": { "expediente": "19604600\/17", "NOMENC.PAR": "3-8-21-24", "TEL": "30\/11\/2017", "address": "TACUARI 2035\/37", "TIPO_OBRA": "Micro Obra", "m2": "7", "NAME": "Obra NO Iniciada", "Trata": "MDUG0122A", "CIUDAD": "Ciudad Autonoma de Buenos Aires", "PAIS": "Argentina" }, "geometry": { "type": "Point", "coordinates": [ -58.373186730612197, -34.631251389795899 ] } },
{ "type": "Feature", "properties": { "expediente": "29467308\/17", "NOMENC.PAR": null, "TEL": "18\/4\/2018", "address": "AVENIDA DIAZ VELEZ 5231\/47", "TIPO_OBRA": "Micro Obra", "m2": "10", "NAME": "Obra NO Iniciada", "Trata": "MDUG0139A", "CIUDAD": "Ciudad Autonoma de Buenos Aires", "PAIS": "Argentina" }, "geometry": { "type": "Point", "coordinates": [ -58.4417077, -34.6083776 ] } },
{ "type": "Feature", "properties": { "expediente": "19491152\/17", "NOMENC.PAR": null, "TEL": "7\/3\/2018", "address": "AVENIDA PASEO COLON 1350\/58", "TIPO_OBRA": "Micro Obra", "m2": null, "NAME": "Obra NO Iniciada", "Trata": "MDUG0122A", "CIUDAD": "Ciudad Autonoma de Buenos Aires", "PAIS": "Argentina" }, "geometry": { "type": "Point", "coordinates": [ -58.367948746938801, -34.6234172469388 ] } },
{ "type": "Feature", "properties": { "expediente": "15276891\/18", "NOMENC.PAR": "19-15-64-12", "TEL": "12\/11\/2018", "address": "SANCHEZ DE BUSTAMANTE 1749", "TIPO_OBRA": "Micro Obra", "m2": null, "NAME": "Obra Iniciada", "Trata": "MDUG0105B", "CIUDAD": "Ciudad Autonoma de Buenos Aires", "PAIS": "Argentina" }, "geometry": { "type": "Point", "coordinates": [ -58.4141711, -34.602141 ] } },
{ "type": "Feature", "properties": { "expediente": "31208145\/18", "NOMENC.PAR": "002-024-051-026", "TEL": "5\/12\/2018", "address": "PATAGONES 2675\/77", "TIPO_OBRA": "Micro Obra", "m2": null, "NAME": "Obra NO Iniciada", "Trata": "MDUG0105B", "CIUDAD": "Ciudad Autonoma de Buenos Aires", "PAIS": "Argentina" }, "geometry": { "type": "Point", "coordinates": [ -58.399600489795901, -34.637126306122397 ] } },
{ "type": "Feature", "properties": { "expediente": "6818128\/17", "NOMENC.PAR": "14-1-19-5", "TEL": "22\/9\/2017", "address": "SARMIENTO 662\/64", "TIPO_OBRA": "Micro Obra", "m2": null, "NAME": "Obra NO Iniciada", "Trata": "MDUG0139A", "CIUDAD": "Ciudad Autonoma de Buenos Aires", "PAIS": "Argentina" }, "geometry": { "type": "Point", "coordinates": [ -58.376027669387803, -34.604673808163298 ] } },
{ "type": "Feature", "properties": { "expediente": "24880172\/17", "NOMENC.PAR": "13-02-69-013C", "TEL": "18\/10\/2018", "address": "AVENIDA PASEO COLON 540\/56", "TIPO_OBRA": "Micro Obra", "m2": null, "NAME": "Obra NO Iniciada", "Trata": "MDUG0139A", "CIUDAD": "Ciudad Autonoma de Buenos Aires", "PAIS": "Argentina" }, "geometry": { "type": "Point", "coordinates": [ -58.3694492, -34.6174871 ] } },
{ "type": "Feature", "properties": { "expediente": "15232253\/18", "NOMENC.PAR": "ESTRUCT.", "TEL": "23\/10\/2018", "address": "SARMIENTO 815\/25", "TIPO_OBRA": "Micro Obra", "m2": null, "NAME": "Obra NO Iniciada", "Trata": "MDUG0122A", "CIUDAD": "Ciudad Autonoma de Buenos Aires", "PAIS": "Argentina" }, "geometry": { "type": "Point", "coordinates": [ -58.378299565789497, -34.604721444736803 ] } },
{ "type": "Feature", "properties": { "expediente": "22085060\/18", "NOMENC.PAR": "16-51-5-3", "TEL": "20\/12\/2018", "address": "OLAZABAL 5614\/18", "TIPO_OBRA": "Micro Obra", "m2": "4", "NAME": "Obra NO Iniciada", "Trata": "MDUG0139A", "CIUDAD": "Ciudad Autonoma de Buenos Aires", "PAIS": "Argentina" }, "geometry": { "type": "Point", "coordinates": [ -58.4639215, -34.5634774 ] } },
{ "type": "Feature", "properties": { "expediente": "6720436\/18", "NOMENC.PAR": null, "TEL": "28\/3\/2018", "address": "CARLOS PELLEGRINI 521", "TIPO_OBRA": "Micro Obra", "m2": null, "NAME": "Obra NO Iniciada", "Trata": "MDUG0122A", "CIUDAD": "Ciudad Autonoma de Buenos Aires", "PAIS": "Argentina" }, "geometry": { "type": "Point", "coordinates": [ -58.380939073469399, -34.602248161224502 ] } },
{ "type": "Feature", "properties": { "expediente": "29917317\/18", "NOMENC.PAR": "18-21-64-12", "TEL": "26\/11\/2018", "address": "REPUBLICA ARABE SIRIA 3183\/85", "TIPO_OBRA": "Micro Obra", "m2": null, "NAME": "Obra NO Iniciada", "Trata": "MDUG0105A", "CIUDAD": "Ciudad Autonoma de Buenos Aires", "PAIS": "Argentina" }, "geometry": { "type": "Point", "coordinates": [ -58.413343347541002, -34.580643731147497 ] } },
{ "type": "Feature", "properties": { "expediente": "9431624\/18", "NOMENC.PAR": "07-17-78-26", "TEL": "4\/12\/2018", "address": "POTOSI 3953\/57", "TIPO_OBRA": "Micro Obra", "m2": null, "NAME": "Obra NO Iniciada", "Trata": "MDUG0105A", "CIUDAD": "Ciudad Autonoma de Buenos Aires", "PAIS": "Argentina" }, "geometry": { "type": "Point", "coordinates": [ -58.4276747, -34.6072664 ] } },
{ "type": "Feature", "properties": { "expediente": "4351758\/18", "NOMENC.PAR": "1-54-112-022", "TEL": "20\/12\/2018", "address": "LACARRA 1088", "TIPO_OBRA": "Micro Obra", "m2": null, "NAME": "Obra NO Iniciada", "Trata": "MDUG0122A", "CIUDAD": "Ciudad Autonoma de Buenos Aires", "PAIS": "Argentina" }, "geometry": { "type": "Point", "coordinates": [ -58.476181673469398, -34.6441096530612 ] } },
{ "type": "Feature", "properties": { "expediente": "26671307\/15", "NOMENC.PAR": "5-48-155-5o", "TEL": "20\/12\/2018", "address": "LAUTARO 94", "TIPO_OBRA": "Micro Obra", "m2": null, "NAME": "Obra NO Iniciada", "Trata": "MDUG0110A", "CIUDAD": "Ciudad Autonoma de Buenos Aires", "PAIS": "Argentina" }, "geometry": { "type": "Point", "coordinates": [ -58.457133644898001, -34.628275755102003 ] } },
{ "type": "Feature", "properties": { "expediente": "34980952\/18", "NOMENC.PAR": "16-63-105-21", "TEL": "28\/1\/2019", "address": "BAUNESS 2978", "TIPO_OBRA": "Micro Obra", "m2": "10", "NAME": "Obra NO Iniciada", "Trata": "MDUG0122A", "CIUDAD": "Ciudad Autonoma de Buenos Aires", "PAIS": "Argentina" }, "geometry": { "type": "Point", "coordinates": [ -58.491291965306097, -34.570731534693898 ] } },
{ "type": "Feature", "properties": { "expediente": "9879401\/17", "NOMENC.PAR": "66-94-002", "TEL": "17\/9\/2018", "address": "SIN NOMBRE", "TIPO_OBRA": "Micro Obra", "m2": null, "NAME": "Obra NO Iniciada", "Trata": "#N\/A", "CIUDAD": "Ciudad Autonoma de Buenos Aires", "PAIS": "Argentina" }, "geometry": { "type": "Point", "coordinates": [ -58.381762, -34.572974 ] } },
{ "type": "Feature", "properties": { "expediente": "12961298\/18", "NOMENC.PAR": "15-83-084-001", "TEL": "20\/12\/2018", "address": "BAHIA BLANCA 4296", "TIPO_OBRA": "Micro Obra", "m2": null, "NAME": "Obra NO Iniciada", "Trata": "#N\/A", "CIUDAD": "Ciudad Autonoma de Buenos Aires", "PAIS": "Argentina" }, "geometry": { "type": "Point", "coordinates": [ -58.512635816326501, -34.597626244898002 ] } },
{ "type": "Feature", "properties": { "expediente": "12564325\/18", "NOMENC.PAR": "15-061-148b", "TEL": "21\/12\/2018", "address": "SALVADOR MARIA DEL CARRIL 2276", "TIPO_OBRA": "Micro Obra", "m2": null, "NAME": "Obra NO Iniciada", "Trata": "MDUG0139A", "CIUDAD": "Ciudad Autonoma de Buenos Aires", "PAIS": "Argentina" }, "geometry": { "type": "Point", "coordinates": [ -58.3940271, -34.586661 ] } },
{ "type": "Feature", "properties": { "expediente": "6524081\/17", "NOMENC.PAR": "1-62-98B-17", "TEL": "18\/12\/2018", "address": "MONTE 5200", "TIPO_OBRA": "Micro Obra", "m2": null, "NAME": "Obra NO Iniciada", "Trata": "MDUG0105A", "CIUDAD": "Ciudad Autonoma de Buenos Aires", "PAIS": "Argentina" }, "geometry": { "type": "Point", "coordinates": [ -58.483576, -34.657698 ] } },
{ "type": "Feature", "properties": { "expediente": "12142805\/18", "NOMENC.PAR": "1-72-137-02", "TEL": "18\/12\/2018", "address": "CAAGUAZU 6110", "TIPO_OBRA": "Micro Obra", "m2": null, "NAME": "Obra NO Iniciada", "Trata": "#N\/A", "CIUDAD": "Ciudad Autonoma de Buenos Aires", "PAIS": "Argentina" }, "geometry": { "type": "Point", "coordinates": [ -58.514426, -34.643428795918403 ] } },
{ "type": "Feature", "properties": { "expediente": "29472637\/17", "NOMENC.PAR": null, "TEL": "7\/3\/2018", "address": "YERBAL 2125", "TIPO_OBRA": "Micro Obra", "m2": null, "NAME": "Obra NO Iniciada", "Trata": "MDUG0105B", "CIUDAD": "Ciudad Autonoma de Buenos Aires", "PAIS": "Argentina" }, "geometry": { "type": "Point", "coordinates": [ -58.459807961224499, -34.626499889795902 ] } },
{ "type": "Feature", "properties": { "expediente": "30110194\/17", "NOMENC.PAR": null, "TEL": "5\/1\/2018", "address": "JOSE ANTONIO CABRERA 5599", "TIPO_OBRA": "Micro Obra", "m2": null, "NAME": "Obra NO Iniciada", "Trata": "MDUG0122A", "CIUDAD": "Ciudad Autonoma de Buenos Aires", "PAIS": "Argentina" }, "geometry": { "type": "Point", "coordinates": [ -58.4379249, -34.5857226 ] } },
{ "type": "Feature", "properties": { "expediente": "18112896\/18", "NOMENC.PAR": "16-43-35-21", "TEL": "10\/10\/2018", "address": "BESARES 3639", "TIPO_OBRA": "Micro Obra", "m2": null, "NAME": "Obra NO Iniciada", "Trata": "MDUG0139A", "CIUDAD": "Ciudad Autonoma de Buenos Aires", "PAIS": "Argentina" }, "geometry": { "type": "Point", "coordinates": [ -58.482680197119102, -34.550418726909903 ] } },
{ "type": "Feature", "properties": { "expediente": "23993886\/18", "NOMENC.PAR": "16-29-82A-9", "TEL": "14\/11\/2018", "address": "PAROISSIEN 1745", "TIPO_OBRA": "Micro Obra", "m2": null, "NAME": "Obra Iniciada", "Trata": "MDUG0105B", "CIUDAD": "Ciudad Autonoma de Buenos Aires", "PAIS": "Argentina" }, "geometry": { "type": "Point", "coordinates": [ -58.4636121204082, -34.5434818836735 ] } },
{ "type": "Feature", "properties": { "expediente": "264237774\/18", "NOMENC.PAR": "15-33-18-18\/18a", "TEL": "13\/12\/2018", "address": "MAURE 4056\/72", "TIPO_OBRA": "Micro Obra", "m2": null, "NAME": "Obra NO Iniciada", "Trata": "#N\/A", "CIUDAD": "Ciudad Autonoma de Buenos Aires", "PAIS": "Argentina" }, "geometry": { "type": "Point", "coordinates": [ -58.4518920816327, -34.5868112244898 ] } },
{ "type": "Feature", "properties": { "expediente": "16903801\/16", "NOMENC.PAR": "16-51-111-03", "TEL": "9\/11\/2017", "address": "OLAZABAL 4030", "TIPO_OBRA": "Micro Obra", "m2": "6", "NAME": "Obra NO Iniciada", "Trata": "MDUG0122A", "CIUDAD": "Ciudad Autonoma de Buenos Aires", "PAIS": "Argentina" }, "geometry": { "type": "Point", "coordinates": [ -58.4637463, -34.5633765 ] } },
{ "type": "Feature", "properties": { "expediente": "9431206\/18", "NOMENC.PAR": "9-13-23-14A", "TEL": "28\/11\/2018", "address": "BILLINGHURST 23", "TIPO_OBRA": "Micro Obra", "m2": null, "NAME": "Obra NO Iniciada", "Trata": "MDUG0105A", "CIUDAD": "Ciudad Autonoma de Buenos Aires", "PAIS": "Argentina" }, "geometry": { "type": "Point", "coordinates": [ -58.415721777550999, -34.610445253061201 ] } },
{ "type": "Feature", "properties": { "expediente": "240168666\/18", "NOMENC.PAR": "18-31-97-23", "TEL": "12\/12\/2018", "address": "CORDOBA 4109", "TIPO_OBRA": "Micro Obra", "m2": null, "NAME": "Obra NO Iniciada", "Trata": "#N\/A", "CIUDAD": "Ciudad Autonoma de Buenos Aires", "PAIS": "Argentina" }, "geometry": { "type": "Point", "coordinates": [ -58.381829252147703, -34.5997731 ] } },
{ "type": "Feature", "properties": { "expediente": "17991638\/18", "NOMENC.PAR": "15-93-74-11", "TEL": "3\/9\/2018", "address": "BRUSELAS 662\/66", "TIPO_OBRA": "Micro Obra", "m2": null, "NAME": "Obra NO Iniciada", "Trata": "MDUG0139A", "CIUDAD": "Ciudad Autonoma de Buenos Aires", "PAIS": "Argentina" }, "geometry": { "type": "Point", "coordinates": [ -58.522390208163301, -34.630171128571398 ] } },
{ "type": "Feature", "properties": { "expediente": "29865934\/17", "NOMENC.PAR": "010-020-010-20a", "TEL": "2\/1\/2019", "address": "SAAVEDRA 149", "TIPO_OBRA": "Micro Obra", "m2": null, "NAME": "Obra NO Iniciada", "Trata": "MDUG0122A", "CIUDAD": "Ciudad Autonoma de Buenos Aires", "PAIS": "Argentina" }, "geometry": { "type": "Point", "coordinates": [ -58.4033327795918, -34.611702826530603 ] } },
{ "type": "Feature", "properties": { "expediente": "11693629\/16", "NOMENC.PAR": "1-76-148-4", "TEL": "22\/9\/2017", "address": "AVENIDA JUAN BAUTISTA ALBERDI 6224\/28", "TIPO_OBRA": "Micro Obra", "m2": null, "NAME": "Obra NO Iniciada", "Trata": "MDUG0122A", "CIUDAD": "Ciudad Autonoma de Buenos Aires", "PAIS": "Argentina" }, "geometry": { "type": "Point", "coordinates": [ -58.5059018, -34.6548314 ] } },
{ "type": "Feature", "properties": { "expediente": "29519610\/17", "NOMENC.PAR": "2-34-12B-8", "TEL": "7\/12\/2018", "address": "SAENZ 760", "TIPO_OBRA": "Micro Obra", "m2": null, "NAME": "Obra NO Iniciada", "Trata": "MDUG0105B", "CIUDAD": "Ciudad Autonoma de Buenos Aires", "PAIS": "Argentina" }, "geometry": { "type": "Point", "coordinates": [ -58.416927114457799, -34.64942485 ] } },
{ "type": "Feature", "properties": { "expediente": "11021901\/17", "NOMENC.PAR": "5-65-95-26", "TEL": "13\/9\/2017", "address": "ALFREDO BUFANO 1084", "TIPO_OBRA": "Micro Obra", "m2": "17", "NAME": "Obra NO Iniciada", "Trata": "MDUG0139A", "CIUDAD": "Ciudad Autonoma de Buenos Aires", "PAIS": "Argentina" }, "geometry": { "type": "Point", "coordinates": [ -58.467631857142898, -34.618228326530598 ] } },
{ "type": "Feature", "properties": { "expediente": "18438364\/16", "NOMENC.PAR": "16-51-119-4", "TEL": "12\/9\/2017", "address": "BLANCO ENCALADA 3932\/34", "TIPO_OBRA": "Micro Obra", "m2": null, "NAME": "Obra NO Iniciada", "Trata": "MDUG1001I", "CIUDAD": "Ciudad Autonoma de Buenos Aires", "PAIS": "Argentina" }, "geometry": { "type": "Point", "coordinates": [ -58.474890979591798, -34.568795877550997 ] } },
{ "type": "Feature", "properties": { "expediente": "25629276\/18", "NOMENC.PAR": "7-45-19-38", "TEL": "12\/11\/2018", "address": "ROJAS 482", "TIPO_OBRA": "Micro Obra", "m2": null, "NAME": "Obra Iniciada", "Trata": "MDUG0105A", "CIUDAD": "Ciudad Autonoma de Buenos Aires", "PAIS": "Argentina" }, "geometry": { "type": "Point", "coordinates": [ -58.443682664285703, -34.6153948428571 ] } },
{ "type": "Feature", "properties": { "expediente": "12562198\/18", "NOMENC.PAR": "17-35-64-1", "TEL": "7\/12\/2018", "address": "AMENABAR 34\/72", "TIPO_OBRA": "Micro Obra", "m2": null, "NAME": "Obra NO Iniciada", "Trata": "MDUG0139A", "CIUDAD": "Ciudad Autonoma de Buenos Aires", "PAIS": "Argentina" }, "geometry": { "type": "Point", "coordinates": [ -58.439203887755099, -34.577323757142899 ] } },
{ "type": "Feature", "properties": { "expediente": "16287685\/17", "NOMENC.PAR": "16-73-31-22h", "TEL": "19\/9\/2017", "address": "AVENIDA GENERAL MOSCONI 2835", "TIPO_OBRA": "Micro Obra", "m2": "4", "NAME": "Obra Iniciada", "Trata": "MDUG0122A", "CIUDAD": "Ciudad Autonoma de Buenos Aires", "PAIS": "Argentina" }, "geometry": { "type": "Point", "coordinates": [ -58.501501132653097, -34.5857829693878 ] } },
{ "type": "Feature", "properties": { "expediente": "20573001\/15", "NOMENC.PAR": "15-77-59-7", "TEL": "9\/10\/2017", "address": "BACACAY 4248\/50", "TIPO_OBRA": "Micro Obra", "m2": "26", "NAME": "Obra NO Iniciada", "Trata": "MDUG1001I", "CIUDAD": "Ciudad Autonoma de Buenos Aires", "PAIS": "Argentina" }, "geometry": { "type": "Point", "coordinates": [ -58.5066503, -34.6357212 ] } },
{ "type": "Feature", "properties": { "expediente": "9421740\/18", "NOMENC.PAR": "12-14-31-24B", "TEL": "4\/12\/2018", "address": "SAN JUAN 1451", "TIPO_OBRA": "Micro Obra", "m2": null, "NAME": "Obra NO Iniciada", "Trata": "MDUG0105A", "CIUDAD": "Ciudad Autonoma de Buenos Aires", "PAIS": "Argentina" }, "geometry": { "type": "Point", "coordinates": [ -58.379921, -34.622104 ] } },
{ "type": "Feature", "properties": { "expediente": "26898770\/17", "NOMENC.PAR": "5-42-016-005", "TEL": "29\/11\/2018", "address": "DIRECTORIO 1740\/46", "TIPO_OBRA": "Micro Obra", "m2": null, "NAME": "Obra NO Iniciada", "Trata": "#N\/A", "CIUDAD": "Ciudad Autonoma de Buenos Aires", "PAIS": "Argentina" }, "geometry": { "type": "Point", "coordinates": [ -58.452261140816297, -34.630975053061199 ] } },
{ "type": "Feature", "properties": { "expediente": "16790819\/18", "NOMENC.PAR": "17-35-74-1b\/2", "TEL": "18\/7\/2018", "address": "SOLER 5722\/30", "TIPO_OBRA": "Micro Obra", "m2": "12", "NAME": "Obra NO Iniciada", "Trata": "MDUG0139A", "CIUDAD": "Ciudad Autonoma de Buenos Aires", "PAIS": "Argentina" }, "geometry": { "type": "Point", "coordinates": [ -58.433914097959203, -34.5799247244898 ] } },
{ "type": "Feature", "properties": { "expediente": "30345386\/18", "NOMENC.PAR": "15-79-137-26", "TEL": "13\/3\/2019", "address": "DOCTOR LUIS BELAUSTEGUI 3263", "TIPO_OBRA": "Micro Obra", "m2": "23,46", "NAME": "Obra Iniciada", "Trata": "MDUG0122A", "CIUDAD": "Ciudad Autonoma de Buenos Aires", "PAIS": "Argentina" }, "geometry": { "type": "Point", "coordinates": [ -58.482083040816299, -34.618759285714297 ] } },
{ "type": "Feature", "properties": { "expediente": "2928529\/17", "NOMENC.PAR": "15-67-45-1", "TEL": "26\/9\/2017", "address": "TERRADA 1898", "TIPO_OBRA": "Micro Obra", "m2": null, "NAME": "Obra NO Iniciada", "Trata": "MDUG0122A", "CIUDAD": "Ciudad Autonoma de Buenos Aires", "PAIS": "Argentina" }, "geometry": { "type": "Point", "coordinates": [ -58.479371714285698, -34.611961 ] } },
{ "type": "Feature", "properties": { "expediente": "4321890\/16", "NOMENC.PAR": "14-01-43-5", "TEL": "2\/11\/2017", "address": "SARMIENTO 336\/40", "TIPO_OBRA": "Micro Obra", "m2": "26", "NAME": "Obra Iniciada", "Trata": "MDUG1001I", "CIUDAD": "Ciudad Autonoma de Buenos Aires", "PAIS": "Argentina" }, "geometry": { "type": "Point", "coordinates": [ -58.371551292261401, -34.604247110524398 ] } },
{ "type": "Feature", "properties": { "expediente": "7958428\/17", "NOMENC.PAR": "19-11-51-2f", "TEL": "22\/9\/2017", "address": "URIBURU 1789\/99", "TIPO_OBRA": "Micro Obra", "m2": "27", "NAME": "Obra NO Iniciada", "Trata": "MDUG0139A", "CIUDAD": "Ciudad Autonoma de Buenos Aires", "PAIS": "Argentina" }, "geometry": { "type": "Point", "coordinates": [ -58.3976443, -34.6084564 ] } },
{ "type": "Feature", "properties": { "expediente": "26367280\/18", "NOMENC.PAR": "14-5-70B-16", "TEL": "28\/3\/2019", "address": "SUIPACHA 356", "TIPO_OBRA": "Micro Obra", "m2": null, "NAME": "Obra NO Iniciada", "Trata": "MDUG0139A", "CIUDAD": "Ciudad Autonoma de Buenos Aires", "PAIS": "Argentina" }, "geometry": { "type": "Point", "coordinates": [ -58.379518609756097, -34.604080356097597 ] } },
{ "type": "Feature", "properties": { "expediente": "21935590\/18", "NOMENC.PAR": "014-005-074-36a", "TEL": "3\/10\/2018", "address": "SUIPACHA 732\/40", "TIPO_OBRA": "Micro Obra", "m2": null, "NAME": "Obra NO Iniciada", "Trata": "MDUG0122A", "CIUDAD": "Ciudad Autonoma de Buenos Aires", "PAIS": "Argentina" }, "geometry": { "type": "Point", "coordinates": [ -58.379180437070666, -34.600014180848241 ] } },
{ "type": "Feature", "properties": { "expediente": "301652236\/18", "NOMENC.PAR": "15-87-64A-16", "TEL": "28\/11\/2018", "address": "ALLENDE 2720", "TIPO_OBRA": "Micro Obra", "m2": null, "NAME": "Obra NO Iniciada", "Trata": "#N\/A", "CIUDAD": "Ciudad Autonoma de Buenos Aires", "PAIS": "Argentina" }, "geometry": { "type": "Point", "coordinates": [ -58.5076116, -34.6173917 ] } },
{ "type": "Feature", "properties": { "expediente": "3913277\/17", "NOMENC.PAR": "06-36-061-13", "TEL": "15\/9\/2017", "address": "AV.BELGRANO 4096\/00", "TIPO_OBRA": "Micro Obra", "m2": null, "NAME": "Obra NO Iniciada", "Trata": "MDUG0122A", "CIUDAD": "Ciudad Autonoma de Buenos Aires", "PAIS": "Argentina" }, "geometry": { "type": "Point", "coordinates": [ -58.369314337696999, -34.61170445 ] } },
{ "type": "Feature", "properties": { "expediente": "24625671\/16", "NOMENC.PAR": "4-016-015-12", "TEL": "26\/11\/2018", "address": "CHACABUCO 1044\/46", "TIPO_OBRA": "Micro Obra", "m2": null, "NAME": "Obra NO Iniciada", "Trata": "MDUG1001B", "CIUDAD": "Ciudad Autonoma de Buenos Aires", "PAIS": "Argentina" }, "geometry": { "type": "Point", "coordinates": [ -58.375723656250003, -34.620174393749998 ] } },
{ "type": "Feature", "properties": { "expediente": "23994579\/18", "NOMENC.PAR": "1-74-65-18a", "TEL": "23\/11\/2018", "address": "PATRON 6964\/76", "TIPO_OBRA": "Micro Obra", "m2": "3", "NAME": "Obra NO Iniciada", "Trata": "MDUG0139A", "CIUDAD": "Ciudad Autonoma de Buenos Aires", "PAIS": "Argentina" }, "geometry": { "type": "Point", "coordinates": [ -58.5185705102041, -34.651110979591799 ] } },
{ "type": "Feature", "properties": { "expediente": "25570149\/18", "NOMENC.PAR": "18-19-52B-04", "TEL": "25\/10\/2018", "address": "THAMES 1689\/99", "TIPO_OBRA": "Micro Obra", "m2": null, "NAME": "Obra NO Iniciada", "Trata": "MDUG0139A", "CIUDAD": "Ciudad Autonoma de Buenos Aires", "PAIS": "Argentina" }, "geometry": { "type": "Point", "coordinates": [ -58.447685, -34.599015 ] } },
{ "type": "Feature", "properties": { "expediente": "13190415\/18", "NOMENC.PAR": "5-65-59-15", "TEL": "22\/11\/2018", "address": "CONDARCO 931\/33", "TIPO_OBRA": "Micro Obra", "m2": "19", "NAME": "Obra NO Iniciada", "Trata": "MDUG0139A", "CIUDAD": "Ciudad Autonoma de Buenos Aires", "PAIS": "Argentina" }, "geometry": { "type": "Point", "coordinates": [ -58.470721551020397, -34.620952857142903 ] } },
{ "type": "Feature", "properties": { "expediente": "23489287\/16", "NOMENC.PAR": "15-61-24-1", "TEL": "9\/10\/2017", "address": "MORLOTE 888", "TIPO_OBRA": "Micro Obra", "m2": "20", "NAME": "Obra Iniciada", "Trata": "MDUG0122A", "CIUDAD": "Ciudad Autonoma de Buenos Aires", "PAIS": "Argentina" }, "geometry": { "type": "Point", "coordinates": [ -58.4722117, -34.5898341 ] } },
{ "type": "Feature", "properties": { "expediente": "26346499\/18", "NOMENC.PAR": "1-44-136A-3a", "TEL": "22\/11\/2018", "address": "AVELINO DIAZ 1416\/22", "TIPO_OBRA": "Micro Obra", "m2": null, "NAME": "Obra NO Iniciada", "Trata": "MDUG0122A", "CIUDAD": "Ciudad Autonoma de Buenos Aires", "PAIS": "Argentina" }, "geometry": { "type": "Point", "coordinates": [ -58.439874263157897, -34.637499736842102 ] } },
{ "type": "Feature", "properties": { "expediente": "27928480\/16", "NOMENC.PAR": "16-25-72-22b", "TEL": "15\/11\/2017", "address": "DEL LIBERTADOR 6279", "TIPO_OBRA": "Micro Obra", "m2": "22", "NAME": "Obra NO Iniciada", "Trata": "MDUG0105A", "CIUDAD": "Ciudad Autonoma de Buenos Aires", "PAIS": "Argentina" }, "geometry": { "type": "Point", "coordinates": [ -58.45614865, -34.55193715 ] } },
{ "type": "Feature", "properties": { "expediente": "25878508\/15", "NOMENC.PAR": "9-13-53-1c", "TEL": "22\/11\/2018", "address": "AG�ERO 616\/18", "TIPO_OBRA": "Micro Obra", "m2": null, "NAME": "Obra NO Iniciada", "Trata": "MDUG1001D", "CIUDAD": "Ciudad Autonoma de Buenos Aires", "PAIS": "Argentina" }, "geometry": { "type": "Point", "coordinates": [ -58.411495285714302, -34.602641428571403 ] } },
{ "type": "Feature", "properties": { "expediente": "30485360\/18", "NOMENC.PAR": "1-80-36-6", "TEL": "20\/11\/2018", "address": "UNANUE 6462", "TIPO_OBRA": "Micro Obra", "m2": null, "NAME": "Obra NO Iniciada", "Trata": "MDUG0122A", "CIUDAD": "Ciudad Autonoma de Buenos Aires", "PAIS": "Argentina" }, "geometry": { "type": "Point", "coordinates": [ -58.478447836734702, -34.684701 ] } },
{ "type": "Feature", "properties": { "expediente": "37609921\/18", "NOMENC.PAR": "15-81-163-9", "TEL": "7\/3\/2019", "address": "NOGOYA 3274\/76", "TIPO_OBRA": "Micro Obra", "m2": null, "NAME": "Obra NO Iniciada", "Trata": "#N\/A", "CIUDAD": "Ciudad Autonoma de Buenos Aires", "PAIS": "Argentina" }, "geometry": { "type": "Point", "coordinates": [ -58.494261740909103, -34.604405645454499 ] } },
{ "type": "Feature", "properties": { "expediente": "35452612\/18", "NOMENC.PAR": "16-41-161-03", "TEL": "7\/3\/2019", "address": "NU�EZ 2452", "TIPO_OBRA": "Micro Obra", "m2": "14,01", "NAME": "Obra NO Iniciada", "Trata": "MDUG0139A", "CIUDAD": "Ciudad Autonoma de Buenos Aires", "PAIS": "Argentina" }, "geometry": { "type": "Point", "coordinates": [ -58.4621491, -34.5453484 ] } },
{ "type": "Feature", "properties": { "expediente": "34759447\/18", "NOMENC.PAR": "05-65-008A-022", "TEL": "8\/3\/2019", "address": "HELGUERA 760\/62", "TIPO_OBRA": "Micro Obra", "m2": null, "NAME": "Obra NO Iniciada", "Trata": "MDUG0122A", "CIUDAD": "Ciudad Autonoma de Buenos Aires", "PAIS": "Argentina" }, "geometry": { "type": "Point", "coordinates": [ -58.4761827346939, -34.623390693877496 ] } },
{ "type": "Feature", "properties": { "expediente": "18402469\/17", "NOMENC.PAR": "032-031-017", "TEL": "15\/11\/2018", "address": "AV. BOEDO 1974", "TIPO_OBRA": "Micro Obra", "m2": null, "NAME": "Obra NO Iniciada", "Trata": "MDUG0105B", "CIUDAD": "Ciudad Autonoma de Buenos Aires", "PAIS": "Argentina" }, "geometry": { "type": "Point", "coordinates": [ -58.416043857142903, -34.637296642857102 ] } },
{ "type": "Feature", "properties": { "expediente": "12219667\/16", "NOMENC.PAR": "17-33-80-34", "TEL": "14\/11\/2018", "address": "HUMBOLDT 1454\/56", "TIPO_OBRA": "Micro Obra", "m2": "21", "NAME": "Obra NO Iniciada", "Trata": "MDUG1001D", "CIUDAD": "Ciudad Autonoma de Buenos Aires", "PAIS": "Argentina" }, "geometry": { "type": "Point", "coordinates": [ -58.437789483673498, -34.5868324714286 ] } },
{ "type": "Feature", "properties": { "expediente": "7311191\/13", "NOMENC.PAR": "15-87-31B-24", "TEL": "20\/12\/2017", "address": "CERVANTES 2173", "TIPO_OBRA": "Micro Obra", "m2": "22", "NAME": "Obra NO Iniciada", "Trata": "MDUG0105A", "CIUDAD": "Ciudad Autonoma de Buenos Aires", "PAIS": "Argentina" }, "geometry": { "type": "Point", "coordinates": [ -58.511812875, -34.619650041666702 ] } },
{ "type": "Feature", "properties": { "expediente": "6568447\/18", "NOMENC.PAR": "18-21-44-14a", "TEL": "13\/3\/2019", "address": "UGARTECHE 3065\/69", "TIPO_OBRA": "Micro Obra", "m2": null, "NAME": "Obra NO Iniciada", "Trata": "MDUG0139A", "CIUDAD": "Ciudad Autonoma de Buenos Aires", "PAIS": "Argentina" }, "geometry": { "type": "Point", "coordinates": [ -58.4127141, -34.5820065 ] } },
{ "type": "Feature", "properties": { "expediente": "29500311\/17", "NOMENC.PAR": "11-09-41-06", "TEL": "12\/3\/2019", "address": "CORDOBA 2340\/44", "TIPO_OBRA": "Micro Obra", "m2": null, "NAME": "Obra Iniciada", "Trata": "MDUG0122A", "CIUDAD": "Ciudad Autonoma de Buenos Aires", "PAIS": "Argentina" }, "geometry": { "type": "Point", "coordinates": [ -58.381829252147703, -34.5997731 ] } },
{ "type": "Feature", "properties": { "expediente": "25456300\/18", "NOMENC.PAR": "17-37-24-19C", "TEL": "3\/12\/2018", "address": "CESPEDES 3446\/52", "TIPO_OBRA": "Micro Obra", "m2": null, "NAME": "Obra NO Iniciada", "Trata": "MDUG0105B", "CIUDAD": "Ciudad Autonoma de Buenos Aires", "PAIS": "Argentina" }, "geometry": { "type": "Point", "coordinates": [ -58.454425571428601, -34.5786189346939 ] } },
{ "type": "Feature", "properties": { "expediente": "33214039\/18", "NOMENC.PAR": "16-73-69-25", "TEL": "15\/1\/2019", "address": "VALLEJOS 2323", "TIPO_OBRA": "Micro Obra", "m2": null, "NAME": "Obra NO Iniciada", "Trata": "MDUG0139A", "CIUDAD": "Ciudad Autonoma de Buenos Aires", "PAIS": "Argentina" }, "geometry": { "type": "Point", "coordinates": [ -58.4943047285714, -34.583740514285701 ] } },
{ "type": "Feature", "properties": { "expediente": "30932583\/18", "NOMENC.PAR": "1-95-029-19", "TEL": "20\/12\/2018", "address": "SAGUI 95", "TIPO_OBRA": "Micro Obra", "m2": null, "NAME": "Obra Iniciada", "Trata": "MDUG0122A", "CIUDAD": "Ciudad Autonoma de Buenos Aires", "PAIS": "Argentina" }, "geometry": { "type": "Point", "coordinates": [ -58.516496161224502, -34.638672795918403 ] } },
{ "type": "Feature", "properties": { "expediente": "31529857\/18", "NOMENC.PAR": "6-40-143-22e", "TEL": "19\/3\/2019", "address": "LA PLATA 575\/87", "TIPO_OBRA": "Micro Obra", "m2": null, "NAME": "Obra NO Iniciada", "Trata": "MDUG0139A", "CIUDAD": "Ciudad Autonoma de Buenos Aires", "PAIS": "Argentina" }, "geometry": { "type": "Point", "coordinates": [ -58.429156836363603, -34.616132431313098 ] } },
{ "type": "Feature", "properties": { "expediente": "7316049\/18", "NOMENC.PAR": "9-13-97-23", "TEL": "8\/8\/2018", "address": "PUEYRREDON 320", "TIPO_OBRA": "Micro Obra", "m2": "26", "NAME": "Obra Iniciada", "Trata": "MDUG0139A", "CIUDAD": "Ciudad Autonoma de Buenos Aires", "PAIS": "Argentina" }, "geometry": { "type": "Point", "coordinates": [ -58.4645040391636, -34.62784285 ] } },
{ "type": "Feature", "properties": { "expediente": "20947428\/17", "NOMENC.PAR": "13-2-4-5\/6\/25", "TEL": "25\/10\/2017", "address": "AV.BELGRANO 1746\/68", "TIPO_OBRA": "Micro Obra", "m2": "8", "NAME": "Obra NO Iniciada", "Trata": "MDUG0139A", "CIUDAD": "Ciudad Autonoma de Buenos Aires", "PAIS": "Argentina" }, "geometry": { "type": "Point", "coordinates": [ -58.369314337696999, -34.61170445 ] } },
{ "type": "Feature", "properties": { "expediente": "22387986\/18", "NOMENC.PAR": "18-19-142-6", "TEL": "22\/2\/2019", "address": "CHARCAS 4470", "TIPO_OBRA": "Micro Obra", "m2": null, "NAME": "Obra NO Iniciada", "Trata": "MDUG0139A", "CIUDAD": "Ciudad Autonoma de Buenos Aires", "PAIS": "Argentina" }, "geometry": { "type": "Point", "coordinates": [ -58.424621312244902, -34.582653014285697 ] } },
{ "type": "Feature", "properties": { "expediente": "25992936\/18", "NOMENC.PAR": "18-31-82-21", "TEL": "12\/11\/2018", "address": "URIARTE 1140", "TIPO_OBRA": "Micro Obra", "m2": null, "NAME": "Obra NO Iniciada", "Trata": "MDUG0139A", "CIUDAD": "Ciudad Autonoma de Buenos Aires", "PAIS": "Argentina" }, "geometry": { "type": "Point", "coordinates": [ -58.43673092, -34.59047138 ] } },
{ "type": "Feature", "properties": { "expediente": "9720744\/18", "NOMENC.PAR": "7-45-73A-T", "TEL": "21\/3\/2019", "address": "ACOYTE 580", "TIPO_OBRA": "Micro Obra", "m2": null, "NAME": "Obra NO Iniciada", "Trata": "MDUG0139A", "CIUDAD": "Ciudad Autonoma de Buenos Aires", "PAIS": "Argentina" }, "geometry": { "type": "Point", "coordinates": [ -58.4359552, -34.6181052 ] } },
{ "type": "Feature", "properties": { "expediente": "15236492\/18", "NOMENC.PAR": "16-29-59-18", "TEL": "22\/3\/2019", "address": "GRECIA 4202", "TIPO_OBRA": "Micro Obra", "m2": null, "NAME": "Obra NO Iniciada", "Trata": "MDUG0139A", "CIUDAD": "Ciudad Autonoma de Buenos Aires", "PAIS": "Argentina" }, "geometry": { "type": "Point", "coordinates": [ -58.4667488, -34.5420376 ] } },
{ "type": "Feature", "properties": { "expediente": "29208665\/18", "NOMENC.PAR": "021-044-019", "TEL": "8\/11\/2018", "address": "UGARTECHE 3001", "TIPO_OBRA": "Micro Obra", "m2": null, "NAME": "Obra NO Iniciada", "Trata": "MDUG0139A", "CIUDAD": "Ciudad Autonoma de Buenos Aires", "PAIS": "Argentina" }, "geometry": { "type": "Point", "coordinates": [ -58.4122031, -34.5812854 ] } },
{ "type": "Feature", "properties": { "expediente": "28620277\/18", "NOMENC.PAR": "5-65-29A-001B", "TEL": "7\/11\/2018", "address": "NEUQUEN 2910\/12", "TIPO_OBRA": "Micro Obra", "m2": null, "NAME": "Obra NO Iniciada", "Trata": "MDUG0105A", "CIUDAD": "Ciudad Autonoma de Buenos Aires", "PAIS": "Argentina" }, "geometry": { "type": "Point", "coordinates": [ -58.474133133333297, -34.6213105 ] } },
{ "type": "Feature", "properties": { "expediente": "6159388\/18", "NOMENC.PAR": "07-45-45B-34", "TEL": "7\/11\/2018", "address": "AVELLANEDA 711\/15", "TIPO_OBRA": "Micro Obra", "m2": null, "NAME": "Obra NO Iniciada", "Trata": "#N\/A", "CIUDAD": "Ciudad Autonoma de Buenos Aires", "PAIS": "Argentina" }, "geometry": { "type": "Point", "coordinates": [ -58.441038808163299, -34.614939724489801 ] } },
{ "type": "Feature", "properties": { "expediente": "28700987\/18", "NOMENC.PAR": "16-51-027B-005C", "TEL": "9\/5\/2019", "address": "LITUANIA 5449\/51", "TIPO_OBRA": "Micro Obra", "m2": null, "NAME": "Obra Iniciada", "Trata": "MDUG0122A", "CIUDAD": "Ciudad Autonoma de Buenos Aires", "PAIS": "Argentina" }, "geometry": { "type": "Point", "coordinates": [ -58.490028951020399, -34.576993671428603 ] } },
{ "type": "Feature", "properties": { "expediente": "32650143\/18", "NOMENC.PAR": "17-23-23-21", "TEL": "5\/4\/2019", "address": "VILLANUEVA 1175", "TIPO_OBRA": "Micro Obra", "m2": null, "NAME": "Obra NO Iniciada", "Trata": "MDUG0139A", "CIUDAD": "Ciudad Autonoma de Buenos Aires", "PAIS": "Argentina" }, "geometry": { "type": "Point", "coordinates": [ -58.441127334693903, -34.566647902040799 ] } },
{ "type": "Feature", "properties": { "expediente": "28556025\/18", "NOMENC.PAR": "19-15-20-3", "TEL": "5\/11\/2018", "address": "PARAGUAY 3330\/34", "TIPO_OBRA": "Micro Obra", "m2": null, "NAME": "Obra NO Iniciada", "Trata": "MDUG0105B", "CIUDAD": "Ciudad Autonoma de Buenos Aires", "PAIS": "Argentina" }, "geometry": { "type": "Point", "coordinates": [ -58.413081110526299, -34.593568331579 ] } },
{ "type": "Feature", "properties": { "expediente": "30414546\/17", "NOMENC.PAR": "16-25-51a-011a", "TEL": "23\/5\/2019", "address": "MENDOZA 1625", "TIPO_OBRA": "Micro Obra", "m2": null, "NAME": "Obra Iniciada", "Trata": "MDUG0122A", "CIUDAD": "Ciudad Autonoma de Buenos Aires", "PAIS": "Argentina" }, "geometry": { "type": "Point", "coordinates": [ -58.4500553, -34.556541471428602 ] } },
{ "type": "Feature", "properties": { "expediente": "21579698\/18", "NOMENC.PAR": "1-54-93-16a", "TEL": "10\/4\/2019", "address": "BOLA�OS 231", "TIPO_OBRA": "Micro Obra", "m2": null, "NAME": "Obra NO Iniciada", "Trata": "MDUG0139A", "CIUDAD": "Ciudad Autonoma de Buenos Aires", "PAIS": "Argentina" }, "geometry": { "type": "Point", "coordinates": [ -58.4847634, -34.6347485 ] } },
{ "type": "Feature", "properties": { "expediente": "7381902\/19", "NOMENC.PAR": "17-35-063-35a", "TEL": "30\/5\/2019", "address": "COSTA RICA 6043\/59", "TIPO_OBRA": "Micro Obra", "m2": null, "NAME": "Obra Iniciada", "Trata": "#N\/A", "CIUDAD": "Ciudad Autonoma de Buenos Aires", "PAIS": "Argentina" }, "geometry": { "type": "Point", "coordinates": [ -58.439171257142903, -34.5789888 ] } },
{ "type": "Feature", "properties": { "expediente": "28331664\/17", "NOMENC.PAR": "17-35-089-017", "TEL": "16\/7\/2018", "address": "SOLER 5965\/71", "TIPO_OBRA": "Micro Obra", "m2": "11", "NAME": "Obra NO Iniciada", "Trata": "MDUG0122A", "CIUDAD": "Ciudad Autonoma de Buenos Aires", "PAIS": "Argentina" }, "geometry": { "type": "Point", "coordinates": [ -58.4361710857143, -34.577895675510199 ] } },
{ "type": "Feature", "properties": { "expediente": "27280490\/18", "NOMENC.PAR": "17-35-20-27", "TEL": "31\/10\/2018", "address": "GORRITI 5925", "TIPO_OBRA": "Micro Obra", "m2": null, "NAME": "Obra NO Iniciada", "Trata": "MDUG0139A", "CIUDAD": "Ciudad Autonoma de Buenos Aires", "PAIS": "Argentina" }, "geometry": { "type": "Point", "coordinates": [ -58.440556565306103, -34.582184818367402 ] } },
{ "type": "Feature", "properties": { "expediente": "23883148\/18", "NOMENC.PAR": "16-53-111A-1C", "TEL": "31\/10\/2018", "address": "TRONADOR 2508", "TIPO_OBRA": "Micro Obra", "m2": null, "NAME": "Obra NO Iniciada", "Trata": "MDUG0139A", "CIUDAD": "Ciudad Autonoma de Buenos Aires", "PAIS": "Argentina" }, "geometry": { "type": "Point", "coordinates": [ -58.4754176076923, -34.5677788923077 ] } },
{ "type": "Feature", "properties": { "expediente": "20911662\/18", "NOMENC.PAR": "8-30-22-15", "TEL": "30\/10\/2018", "address": "PAVON 3365\/69", "TIPO_OBRA": "Micro Obra", "m2": null, "NAME": "Obra NO Iniciada", "Trata": "MDUG0139A", "CIUDAD": "Ciudad Autonoma de Buenos Aires", "PAIS": "Argentina" }, "geometry": { "type": "Point", "coordinates": [ -58.412649514206961, -34.629283989017758 ] } },
{ "type": "Feature", "properties": { "expediente": "26739193\/18", "NOMENC.PAR": "9-13-75-28", "TEL": "11\/4\/2019", "address": "SAN LUIS 6057", "TIPO_OBRA": "Micro Obra", "m2": null, "NAME": "Obra NO Iniciada", "Trata": "MDUG0139A", "CIUDAD": "Ciudad Autonoma de Buenos Aires", "PAIS": "Argentina" }, "geometry": { "type": "Point", "coordinates": [ -58.4121152, -34.5993 ] } },
{ "type": "Feature", "properties": { "expediente": "14398987\/18", "NOMENC.PAR": "5-48-62-15", "TEL": "26\/10\/2018", "address": "J.BONIFACIO 2734", "TIPO_OBRA": "Micro Obra", "m2": null, "NAME": "Obra NO Iniciada", "Trata": "MDUG0139A", "CIUDAD": "Ciudad Autonoma de Buenos Aires", "PAIS": "Argentina" }, "geometry": { "type": "Point", "coordinates": [ -58.4449592, -34.6283539 ] } },
{ "type": "Feature", "properties": { "expediente": "35201388\/18", "NOMENC.PAR": "15-49-155-21A", "TEL": "16\/4\/2019", "address": "FOREST 1526", "TIPO_OBRA": "Micro Obra", "m2": "11,65", "NAME": "Obra NO Iniciada", "Trata": "MDUG0122A", "CIUDAD": "Ciudad Autonoma de Buenos Aires", "PAIS": "Argentina" }, "geometry": { "type": "Point", "coordinates": [ -58.4636174, -34.5750394 ] } },
{ "type": "Feature", "properties": { "expediente": "26604481\/17", "NOMENC.PAR": "20-07-28-32", "TEL": "1\/12\/2017", "address": "PARAGUAY 1565", "TIPO_OBRA": "Micro Obra", "m2": "17", "NAME": "Obra Iniciada", "Trata": "MDUG0122A", "CIUDAD": "Ciudad Autonoma de Buenos Aires", "PAIS": "Argentina" }, "geometry": { "type": "Point", "coordinates": [ -58.389167285714301, -34.598373616326498 ] } },
{ "type": "Feature", "properties": { "expediente": "3535999\/19", "NOMENC.PAR": "21-98-63G-6", "TEL": "23\/4\/2019", "address": "SIN NOMBRE", "TIPO_OBRA": "Micro Obra", "m2": null, "NAME": "Obra NO Iniciada", "Trata": "#N\/A", "CIUDAD": "Ciudad Autonoma de Buenos Aires", "PAIS": "Argentina" }, "geometry": { "type": "Point", "coordinates": [ -58.381762, -34.572974 ] } },
{ "type": "Feature", "properties": { "expediente": "27701736\/18", "NOMENC.PAR": "9-13-50-48a", "TEL": "5\/2\/2019", "address": "CORRIENTES 3360\/72", "TIPO_OBRA": "Micro Obra", "m2": null, "NAME": "Obra NO Iniciada", "Trata": "MDUG0139A", "CIUDAD": "Ciudad Autonoma de Buenos Aires", "PAIS": "Argentina" }, "geometry": { "type": "Point", "coordinates": [ -58.4441599, -34.5946437 ] } },
{ "type": "Feature", "properties": { "expediente": "17033886\/18", "NOMENC.PAR": "01-38-201-04", "TEL": "23\/10\/2018", "address": "INCLAN 3874", "TIPO_OBRA": "Micro Obra", "m2": null, "NAME": "Obra NO Iniciada", "Trata": "MDUG0139A", "CIUDAD": "Ciudad Autonoma de Buenos Aires", "PAIS": "Argentina" }, "geometry": { "type": "Point", "coordinates": [ -58.418783783333303, -34.633134566666698 ] } },
{ "type": "Feature", "properties": { "expediente": "21347004\/18", "NOMENC.PAR": "5-48-16-14", "TEL": "27\/3\/2019", "address": "GREGORIO DE LAFERRERE 3382", "TIPO_OBRA": "Micro Obra", "m2": null, "NAME": "Obra NO Iniciada", "Trata": "MDUG0139A", "CIUDAD": "Ciudad Autonoma de Buenos Aires", "PAIS": "Argentina" }, "geometry": { "type": "Point", "coordinates": [ -58.466679306122501, -34.641720448979598 ] } },
{ "type": "Feature", "properties": { "expediente": "29959385\/17", "NOMENC.PAR": null, "TEL": "23\/3\/2018", "address": "O'HIGGINS 3480", "TIPO_OBRA": "Micro Obra", "m2": null, "NAME": "Obra NO Iniciada", "Trata": "MDUG0105B", "CIUDAD": "Ciudad Autonoma de Buenos Aires", "PAIS": "Argentina" }, "geometry": { "type": "Point", "coordinates": [ -58.4638441632653, -34.548189414285702 ] } },
{ "type": "Feature", "properties": { "expediente": "23721412\/18", "NOMENC.PAR": "15-61-125-15", "TEL": "29\/4\/2019", "address": "LOS INCAS 5451", "TIPO_OBRA": "Micro Obra", "m2": null, "NAME": "Obra NO Iniciada", "Trata": "MDUG0139A", "CIUDAD": "Ciudad Autonoma de Buenos Aires", "PAIS": "Argentina" }, "geometry": { "type": "Point", "coordinates": [ -58.4592576, -34.5714123 ] } },
{ "type": "Feature", "properties": { "expediente": "12761058\/17", "NOMENC.PAR": "16-51-79-4", "TEL": "19\/10\/2018", "address": "MONROE 4622", "TIPO_OBRA": "Micro Obra", "m2": null, "NAME": "Obra NO Iniciada", "Trata": "MDUG0139A", "CIUDAD": "Ciudad Autonoma de Buenos Aires", "PAIS": "Argentina" }, "geometry": { "type": "Point", "coordinates": [ -58.4599229, -34.5583089 ] } },
{ "type": "Feature", "properties": { "expediente": "25676300\/18", "NOMENC.PAR": "15-89-92-17t", "TEL": "2\/5\/2019", "address": "AVENIDA FRANCISCO BEIRO 4639", "TIPO_OBRA": "Micro Obra", "m2": null, "NAME": "Obra NO Iniciada", "Trata": "MDUG0139A", "CIUDAD": "Ciudad Autonoma de Buenos Aires", "PAIS": "Argentina" }, "geometry": { "type": "Point", "coordinates": [ -58.516121346938803, -34.608398795918397 ] } },
{ "type": "Feature", "properties": { "expediente": "21006219\/18", "NOMENC.PAR": "16-39-52-4a", "TEL": "17\/10\/2018", "address": "MONROE 3130\/34", "TIPO_OBRA": "Micro Obra", "m2": null, "NAME": "Obra NO Iniciada", "Trata": "MDUG0122A", "CIUDAD": "Ciudad Autonoma de Buenos Aires", "PAIS": "Argentina" }, "geometry": { "type": "Point", "coordinates": [ -58.4599229, -34.5583089 ] } },
{ "type": "Feature", "properties": { "expediente": "31975702\/18", "NOMENC.PAR": "39-70-004", "TEL": "9\/5\/2019", "address": "MENDOZA 2860\/64", "TIPO_OBRA": "Micro Obra", "m2": null, "NAME": "Obra NO Iniciada", "Trata": "MDUG0139A", "CIUDAD": "Ciudad Autonoma de Buenos Aires", "PAIS": "Argentina" }, "geometry": { "type": "Point", "coordinates": [ -58.4616697, -34.563581065306103 ] } },
{ "type": "Feature", "properties": { "expediente": "23092533\/18", "NOMENC.PAR": "5-42-70-34", "TEL": "16\/10\/2018", "address": "HORTIGUERA 791\/99", "TIPO_OBRA": "Micro Obra", "m2": "28", "NAME": "Obra NO Iniciada", "Trata": "MDUG0139A", "CIUDAD": "Ciudad Autonoma de Buenos Aires", "PAIS": "Argentina" }, "geometry": { "type": "Point", "coordinates": [ -58.443821510204103, -34.6314254693878 ] } },
{ "type": "Feature", "properties": { "expediente": "27751139\/16", "NOMENC.PAR": "7-17-89-9", "TEL": "28\/3\/2019", "address": "INCA 3880", "TIPO_OBRA": "Micro Obra", "m2": null, "NAME": "Obra NO Iniciada", "Trata": "MDUG0105A", "CIUDAD": "Ciudad Autonoma de Buenos Aires", "PAIS": "Argentina" }, "geometry": { "type": "Point", "coordinates": [ -58.421014197959202, -34.606736155101999 ] } },
{ "type": "Feature", "properties": { "expediente": "35037088\/18", "NOMENC.PAR": "21-98-63H-7", "TEL": "13\/5\/2019", "address": "SIN NOMBRE", "TIPO_OBRA": "Micro Obra", "m2": null, "NAME": "Obra NO Iniciada", "Trata": "MDUG0122A", "CIUDAD": "Ciudad Autonoma de Buenos Aires", "PAIS": "Argentina" }, "geometry": { "type": "Point", "coordinates": [ -58.381762, -34.572974 ] } },
{ "type": "Feature", "properties": { "expediente": "22378730\/18", "NOMENC.PAR": "1-38-139-1b", "TEL": "9\/5\/2019", "address": "AVENIDA JUAN DE GARAY 4312", "TIPO_OBRA": "Micro Obra", "m2": "29,32", "NAME": "Obra NO Iniciada", "Trata": "MDUG0122A", "CIUDAD": "Ciudad Autonoma de Buenos Aires", "PAIS": "Argentina" }, "geometry": { "type": "Point", "coordinates": [ -58.424463081632702, -34.632389122448998 ] } },
{ "type": "Feature", "properties": { "expediente": "31917602\/18", "NOMENC.PAR": "15-71-001-004C", "TEL": "4\/4\/2019", "address": "MELINCUE 3150\/54", "TIPO_OBRA": "Micro Obra", "m2": "22,05", "NAME": "Obra NO Iniciada", "Trata": "MDUG0122A", "CIUDAD": "Ciudad Autonoma de Buenos Aires", "PAIS": "Argentina" }, "geometry": { "type": "Point", "coordinates": [ -58.493435934693899, -34.602594959183698 ] } },
{ "type": "Feature", "properties": { "expediente": "11327220\/17", "NOMENC.PAR": null, "TEL": "11\/6\/2018", "address": "DESAGUADERO 3262", "TIPO_OBRA": "Micro Obra", "m2": "17", "NAME": "Obra NO Iniciada", "Trata": "MDUG0122A", "CIUDAD": "Ciudad Autonoma de Buenos Aires", "PAIS": "Argentina" }, "geometry": { "type": "Point", "coordinates": [ -58.516182689795897, -34.611972589795897 ] } },
{ "type": "Feature", "properties": { "expediente": "34927221\/18", "NOMENC.PAR": "21-98-63H-8", "TEL": "13\/5\/2019", "address": "SIN NOMBRE", "TIPO_OBRA": "Micro Obra", "m2": null, "NAME": "Obra NO Iniciada", "Trata": "MDUG0122A", "CIUDAD": "Ciudad Autonoma de Buenos Aires", "PAIS": "Argentina" }, "geometry": { "type": "Point", "coordinates": [ -58.381762, -34.572974 ] } },
{ "type": "Feature", "properties": { "expediente": "25537793\/18", "NOMENC.PAR": "15-89-49-17a", "TEL": "23\/11\/2018", "address": "DESAGUADERO 4147", "TIPO_OBRA": "Micro Obra", "m2": null, "NAME": "Obra NO Iniciada", "Trata": "#N\/A", "CIUDAD": "Ciudad Autonoma de Buenos Aires", "PAIS": "Argentina" }, "geometry": { "type": "Point", "coordinates": [ -58.522197081632697, -34.604952734693903 ] } },
{ "type": "Feature", "properties": { "expediente": "35130117\/18", "NOMENC.PAR": "21-98-63H-2", "TEL": "13\/5\/2019", "address": "SIN NOMBRE", "TIPO_OBRA": "Micro Obra", "m2": null, "NAME": "Obra NO Iniciada", "Trata": "#N\/A", "CIUDAD": "Ciudad Autonoma de Buenos Aires", "PAIS": "Argentina" }, "geometry": { "type": "Point", "coordinates": [ -58.381762, -34.572974 ] } },
{ "type": "Feature", "properties": { "expediente": "10890567\/18", "NOMENC.PAR": "15-81-121b-14", "TEL": "28\/9\/2018", "address": "LASCANO 3528", "TIPO_OBRA": "Micro Obra", "m2": "5", "NAME": "Obra Iniciada", "Trata": "MDUG0105A", "CIUDAD": "Ciudad Autonoma de Buenos Aires", "PAIS": "Argentina" }, "geometry": { "type": "Point", "coordinates": [ -58.492397, -34.611061833333302 ] } },
{ "type": "Feature", "properties": { "expediente": "9666579\/18", "NOMENC.PAR": "16-25-72-15b", "TEL": "21\/5\/2019", "address": "BLANCO ENCALADA 1458", "TIPO_OBRA": "Micro Obra", "m2": null, "NAME": "Obra NO Iniciada", "Trata": "MDUG0139A", "CIUDAD": "Ciudad Autonoma de Buenos Aires", "PAIS": "Argentina" }, "geometry": { "type": "Point", "coordinates": [ -58.449563385714299, -34.553621614285703 ] } },
{ "type": "Feature", "properties": { "expediente": "13226986\/18", "NOMENC.PAR": "016-025-112-017h", "TEL": "7\/11\/2018", "address": "DRAGONES 2443\/51", "TIPO_OBRA": "Micro Obra", "m2": null, "NAME": "Obra NO Iniciada", "Trata": "#N\/A", "CIUDAD": "Ciudad Autonoma de Buenos Aires", "PAIS": "Argentina" }, "geometry": { "type": "Point", "coordinates": [ -58.443739585714297, -34.549517142857098 ] } },
{ "type": "Feature", "properties": { "expediente": "16834243\/17", "NOMENC.PAR": "18-19-3-30b", "TEL": "17\/5\/2019", "address": "CORDOBA 3815", "TIPO_OBRA": "Micro Obra", "m2": null, "NAME": "Obra NO Iniciada", "Trata": "MDUG0139A", "CIUDAD": "Ciudad Autonoma de Buenos Aires", "PAIS": "Argentina" }, "geometry": { "type": "Point", "coordinates": [ -58.381829252147703, -34.5997731 ] } },
{ "type": "Feature", "properties": { "expediente": "2371310\/18", "NOMENC.PAR": null, "TEL": "12\/3\/2018", "address": "DRAGONES 2466", "TIPO_OBRA": "Micro Obra", "m2": "4", "NAME": "Obra NO Iniciada", "Trata": "MDUG0122A", "CIUDAD": "Ciudad Autonoma de Buenos Aires", "PAIS": "Argentina" }, "geometry": { "type": "Point", "coordinates": [ -58.444042130612203, -34.549431581632703 ] } },
{ "type": "Feature", "properties": { "expediente": "7049648\/19", "NOMENC.PAR": "17-23-13-5", "TEL": "20\/5\/2019", "address": "CABILDO 515", "TIPO_OBRA": "Micro Obra", "m2": null, "NAME": "Obra NO Iniciada", "Trata": "#N\/A", "CIUDAD": "Ciudad Autonoma de Buenos Aires", "PAIS": "Argentina" }, "geometry": { "type": "Point", "coordinates": [ -58.373709801741398, -34.60881915 ] } },
{ "type": "Feature", "properties": { "expediente": "24229478\/18", "NOMENC.PAR": "16-29-17-23", "TEL": "11\/10\/2018", "address": "CUBA 3948\/52", "TIPO_OBRA": "Micro Obra", "m2": null, "NAME": "Obra NO Iniciada", "Trata": "MDUG0139A", "CIUDAD": "Ciudad Autonoma de Buenos Aires", "PAIS": "Argentina" }, "geometry": { "type": "Point", "coordinates": [ -58.4680951, -34.545375248979603 ] } },
{ "type": "Feature", "properties": { "expediente": "23108995\/18", "NOMENC.PAR": "17-35-108-16", "TEL": "11\/10\/2018", "address": "MATIENZO 2489", "TIPO_OBRA": "Micro Obra", "m2": null, "NAME": "Obra NO Iniciada", "Trata": "MDUG0139A", "CIUDAD": "Ciudad Autonoma de Buenos Aires", "PAIS": "Argentina" }, "geometry": { "type": "Point", "coordinates": [ -58.4405048, -34.5721721 ] } },
{ "type": "Feature", "properties": { "expediente": "33788463\/18", "NOMENC.PAR": "17-23-99-13", "TEL": "28\/5\/2019", "address": "AVENIDA LUIS MARIA CAMPOS 1345", "TIPO_OBRA": "Micro Obra", "m2": null, "NAME": "Obra NO Iniciada", "Trata": "MDUG0122A", "CIUDAD": "Ciudad Autonoma de Buenos Aires", "PAIS": "Argentina" }, "geometry": { "type": "Point", "coordinates": [ -58.441710229819897, -34.5639996 ] } },
{ "type": "Feature", "properties": { "expediente": "10161363\/18", "NOMENC.PAR": "16-53-92-1d", "TEL": "8\/10\/2018", "address": "HOLMBERG 2874\/00", "TIPO_OBRA": "Micro Obra", "m2": null, "NAME": "Obra NO Iniciada", "Trata": "MDUG0139A", "CIUDAD": "Ciudad Autonoma de Buenos Aires", "PAIS": "Argentina" }, "geometry": { "type": "Point", "coordinates": [ -58.480436959183699, -34.5655251836735 ] } },
{ "type": "Feature", "properties": { "expediente": "39405690\/15", "NOMENC.PAR": "36-83-42-4a", "TEL": "30\/4\/2019", "address": "GUALEGUAYCHU 3529\/35", "TIPO_OBRA": "Micro Obra", "m2": null, "NAME": "Obra NO Iniciada", "Trata": "MDUG0105A", "CIUDAD": "Ciudad Autonoma de Buenos Aires", "PAIS": "Argentina" }, "geometry": { "type": "Point", "coordinates": [ -58.5118992857143, -34.603281571428603 ] } }
]
}
